[{"city":"Tokyo","lat":35.687,"lng":139.7495},{"city":"Jakarta","lat":-6.175,"lng":106.8275},{"city":"Delhi","lat":28.61,"lng":77.23},{"city":"Guangzhou","lat":23.13,"lng":113.26},{"city":"Mumbai","lat":19.0761,"lng":72.8775},{"city":"Manila","lat":14.5958,"lng":120.9772},{"city":"Shanghai","lat":31.2286,"lng":121.4747},{"city":"São Paulo","lat":-23.5504,"lng":-46.6339},{"city":"Seoul","lat":37.5667,"lng":126.9833},{"city":"Mexico City","lat":19.4333,"lng":-99.1333},{"city":"Kolkāta","lat":22.5675,"lng":88.37},{"city":"Cairo","lat":30.0444,"lng":31.2358},{"city":"Karachi","lat":24.86,"lng":67.01},{"city":"Dhaka","lat":23.7289,"lng":90.3944},{"city":"New York","lat":40.6943,"lng":-73.9249},{"city":"Beijing","lat":39.9067,"lng":116.3975},{"city":"Bangkok","lat":13.7525,"lng":100.4942},{"city":"Shenzhen","lat":22.5415,"lng":114.0596},{"city":"Moscow","lat":55.7506,"lng":37.6175},{"city":"Buenos Aires","lat":-34.6036,"lng":-58.3814},{"city":"Lagos","lat":6.455,"lng":3.3841},{"city":"Bangalore","lat":12.9789,"lng":77.5917},{"city":"Ho Chi Minh City","lat":10.7756,"lng":106.7019},{"city":"Ōsaka","lat":34.6939,"lng":135.5022},{"city":"Chengdu","lat":30.66,"lng":104.0633},{"city":"Istanbul","lat":41.0136,"lng":28.955},{"city":"Tehran","lat":35.6889,"lng":51.3897},{"city":"Kinshasa","lat":-4.3219,"lng":15.3119},{"city":"Rio de Janeiro","lat":-22.9111,"lng":-43.2056},{"city":"Chennai","lat":13.0825,"lng":80.275},{"city":"Xi’an","lat":34.2611,"lng":108.9422},{"city":"Lahore","lat":31.5497,"lng":74.3436},{"city":"Chongqing","lat":29.5637,"lng":106.5504},{"city":"Los Angeles","lat":34.1141,"lng":-118.4068},{"city":"London","lat":51.5072,"lng":-0.1275},{"city":"Paris","lat":48.8567,"lng":2.3522},{"city":"Linyi","lat":35.1038,"lng":118.3564},{"city":"Dongguan","lat":23.021,"lng":113.752},{"city":"Baoding","lat":38.874,"lng":115.464},{"city":"Hyderābād","lat":17.3617,"lng":78.4747},{"city":"Tianjin","lat":39.1336,"lng":117.2054},{"city":"Lima","lat":-12.06,"lng":-77.0375},{"city":"Wuhan","lat":30.5934,"lng":114.3046},{"city":"Nanyang","lat":32.9902,"lng":112.5285},{"city":"Hangzhou","lat":30.267,"lng":120.153},{"city":"Nagoya","lat":35.1833,"lng":136.9},{"city":"Luanda","lat":-8.8383,"lng":13.2344},{"city":"Foshan","lat":23.0214,"lng":113.1216},{"city":"Kuala Lumpur","lat":3.1686,"lng":101.698},{"city":"Zhoukou","lat":33.6367,"lng":114.7014},{"city":"Tongshan","lat":34.261,"lng":117.1859},{"city":"Hanoi","lat":21,"lng":105.85},{"city":"Chicago","lat":41.8375,"lng":-87.6866},{"city":"Nanjing","lat":32.0608,"lng":118.7789},{"city":"Heze","lat":35.2343,"lng":115.4796},{"city":"Pune","lat":18.5203,"lng":73.8567},{"city":"Jining","lat":35.4151,"lng":116.5871},{"city":"Bogotá","lat":4.7111,"lng":-74.0722},{"city":"Ahmedabad","lat":23.0225,"lng":72.5714},{"city":"Shenyang","lat":41.8025,"lng":123.4281},{"city":"Dar es Salaam","lat":-6.8161,"lng":39.2803},{"city":"Khartoum","lat":15.6031,"lng":32.5265},{"city":"Johannesburg","lat":-26.2044,"lng":28.0456},{"city":"Fuyang","lat":32.89,"lng":115.814},{"city":"Hong Kong","lat":22.3,"lng":114.2},{"city":"Ganzhou","lat":25.831,"lng":114.933},{"city":"Shangqiu","lat":34.415,"lng":115.656},{"city":"Cangzhou","lat":38.3047,"lng":116.8387},{"city":"Riyadh","lat":24.65,"lng":46.71},{"city":"Santiago","lat":-33.4372,"lng":-70.6506},{"city":"Zhumadian","lat":33.014,"lng":114.022},{"city":"Zhanjiang","lat":21.2701,"lng":110.3575},{"city":"Rangoon","lat":16.795,"lng":96.16},{"city":"Yancheng","lat":33.35,"lng":120.1569},{"city":"Bijie","lat":27.284,"lng":105.292},{"city":"Xingtai","lat":37.0717,"lng":114.5048},{"city":"Hengyang","lat":26.894,"lng":112.572},{"city":"Shaoyang","lat":27.2395,"lng":111.4679},{"city":"Surabaya","lat":-7.2458,"lng":112.7378},{"city":"Sūrat","lat":21.205,"lng":72.84},{"city":"Quanzhou","lat":24.8744,"lng":118.6757},{"city":"Shangrao","lat":28.4551,"lng":117.9431},{"city":"Zunyi","lat":27.722,"lng":107.031},{"city":"Madrid","lat":40.4169,"lng":-3.7033},{"city":"Baghdad","lat":33.3153,"lng":44.3661},{"city":"Maoming","lat":21.6627,"lng":110.9255},{"city":"Miami","lat":25.784,"lng":-80.2101},{"city":"Xinyang","lat":32.149,"lng":114.091},{"city":"Houston","lat":29.786,"lng":-95.3885},{"city":"Singapore","lat":1.3,"lng":103.8},{"city":"Prayagraj","lat":25.4358,"lng":81.8464},{"city":"Huanggang","lat":30.4537,"lng":114.8724},{"city":"Dalian","lat":38.9,"lng":121.6},{"city":"Ankara","lat":39.93,"lng":32.85},{"city":"Dallas","lat":32.7935,"lng":-96.7667},{"city":"Qingdao","lat":36.0669,"lng":120.3827},{"city":"Yulin","lat":22.654,"lng":110.181},{"city":"Liaocheng","lat":36.4559,"lng":115.9852},{"city":"Douala","lat":4.05,"lng":9.7},{"city":"Qujing","lat":25.491,"lng":103.796},{"city":"Nangandao","lat":35.3036,"lng":113.9268},{"city":"Addis Ababa","lat":9.03,"lng":38.74},{"city":"Philadelphia","lat":40.0077,"lng":-75.1339},{"city":"Toronto","lat":43.7417,"lng":-79.3733},{"city":"Zhengzhou","lat":34.764,"lng":113.684},{"city":"Nanchong","lat":30.8372,"lng":106.1106},{"city":"Jinan","lat":36.6702,"lng":117.0207},{"city":"Giza","lat":29.987,"lng":31.2118},{"city":"Saint Petersburg","lat":59.9375,"lng":30.3086},{"city":"Jieyang","lat":23.551,"lng":116.3727},{"city":"Dezhou","lat":37.436,"lng":116.359},{"city":"Nairobi","lat":-1.2864,"lng":36.8172},{"city":"Guadalajara","lat":20.6767,"lng":-103.3475},{"city":"Tai’an","lat":36.202,"lng":117.087},{"city":"Dazhou","lat":31.2093,"lng":107.4678},{"city":"Belo Horizonte","lat":-19.9281,"lng":-43.9419},{"city":"Suzhou","lat":33.648,"lng":116.964},{"city":"Monterrey","lat":25.6844,"lng":-100.3181},{"city":"Yongzhou","lat":26.42,"lng":111.613},{"city":"Changde","lat":29.031,"lng":111.699},{"city":"Xiangyang","lat":32.01,"lng":112.122},{"city":"Atlanta","lat":33.7628,"lng":-84.422},{"city":"Pudong","lat":31.2347,"lng":121.5064},{"city":"Washington","lat":38.9047,"lng":-77.0163},{"city":"Zhaotong","lat":27.338,"lng":103.717},{"city":"Zhangzhou","lat":24.513,"lng":117.647},{"city":"Yueyang","lat":29.3647,"lng":113.1309},{"city":"Melbourne","lat":-37.8142,"lng":144.9631},{"city":"Yichun","lat":27.816,"lng":114.417},{"city":"Abidjan","lat":5.3364,"lng":-4.0267},{"city":"Guilin","lat":25.275,"lng":110.296},{"city":"Pingdingshan","lat":33.7666,"lng":113.1926},{"city":"Alexandria","lat":31.1975,"lng":29.8925},{"city":"Bozhou","lat":33.8463,"lng":115.7786},{"city":"Sydney","lat":-33.8667,"lng":151.2},{"city":"Barcelona","lat":41.3833,"lng":2.1833},{"city":"Yuncheng","lat":35.0267,"lng":111.007},{"city":"Cape Town","lat":-33.9253,"lng":18.4239},{"city":"Changsha","lat":28.228,"lng":112.939},{"city":"Suqian","lat":33.963,"lng":118.275},{"city":"Jeddah","lat":21.5428,"lng":39.1728},{"city":"Weinan","lat":34.5206,"lng":109.471},{"city":"Berlin","lat":52.52,"lng":13.405},{"city":"Chenzhou","lat":25.77,"lng":113.016},{"city":"Jiangmen","lat":22.5789,"lng":113.0815},{"city":"Mianyang","lat":31.468,"lng":104.679},{"city":"Jiujiang","lat":29.661,"lng":115.954},{"city":"Huaihua","lat":27.5698,"lng":110.0016},{"city":"Huanglongsi","lat":34.795,"lng":114.345},{"city":"Taizhou","lat":32.4567,"lng":119.9229},{"city":"Belāhi","lat":26.4,"lng":86.25},{"city":"Yibin","lat":28.752,"lng":104.643},{"city":"Ji’an","lat":27.0912,"lng":114.9668},{"city":"Yangzhou","lat":32.3944,"lng":119.4128},{"city":"Kunming","lat":25.0464,"lng":102.7094},{"city":"Changchun","lat":43.897,"lng":125.326},{"city":"Lu’an","lat":31.736,"lng":116.52},{"city":"Xinpu","lat":34.5966,"lng":119.2214},{"city":"Langfang","lat":39.5383,"lng":116.6835},{"city":"Boston","lat":42.3188,"lng":-71.0852},{"city":"Ürümqi","lat":43.8225,"lng":87.6125},{"city":"Suzhou","lat":31.3,"lng":120.6194},{"city":"Guigang","lat":23.112,"lng":109.599},{"city":"Shantou","lat":23.354,"lng":116.682},{"city":"Jiangguanchi","lat":34.037,"lng":113.852},{"city":"Kabul","lat":34.5253,"lng":69.1783},{"city":"Xiaoganzhan","lat":30.918,"lng":113.957},{"city":"Bamako","lat":12.6458,"lng":-7.9922},{"city":"Kano","lat":12,"lng":8.5167},{"city":"Luzhou","lat":28.871,"lng":105.442},{"city":"Hefei","lat":31.8206,"lng":117.2273},{"city":"Hengshui","lat":37.739,"lng":115.669},{"city":"Fortaleza","lat":-3.7275,"lng":-38.5275},{"city":"Anqing","lat":30.5318,"lng":117.1153},{"city":"Zhangjiakou","lat":40.769,"lng":114.886},{"city":"Zhaoqing","lat":23.05,"lng":112.4667},{"city":"Shijiazhuang","lat":38.0425,"lng":114.51},{"city":"Ningbo","lat":29.8603,"lng":121.6245},{"city":"Qiqihar","lat":47.3549,"lng":123.9182},{"city":"Phoenix","lat":33.5722,"lng":-112.0892},{"city":"Liuzhou","lat":24.3278,"lng":109.4278},{"city":"Chifeng","lat":42.255,"lng":118.8825},{"city":"Xiaoxita","lat":30.692,"lng":111.287},{"city":"Amman","lat":31.9497,"lng":35.9328},{"city":"Linfen","lat":36.088,"lng":111.519},{"city":"Xianyang","lat":34.3299,"lng":108.7088},{"city":"Chuzhou","lat":32.256,"lng":118.333},{"city":"Kumasi","lat":6.7,"lng":-1.625},{"city":"Zhuzhou","lat":27.829,"lng":113.133},{"city":"Taiyuan","lat":37.8704,"lng":112.5497},{"city":"Qingyuan","lat":23.682,"lng":113.056},{"city":"Meizhou","lat":24.289,"lng":116.122},{"city":"Yiyang","lat":28.5549,"lng":112.356},{"city":"Nanning","lat":22.8167,"lng":108.3275},{"city":"Harbin","lat":45.7576,"lng":126.6409},{"city":"Loudi","lat":27.6998,"lng":111.9944},{"city":"Abuja","lat":9.0667,"lng":7.4833},{"city":"Yokohama","lat":35.4442,"lng":139.6381},{"city":"Suihua","lat":46.654,"lng":126.969},{"city":"Binzhou","lat":37.383,"lng":117.971},{"city":"Zaozhuang","lat":34.8109,"lng":117.3238},{"city":"Detroit","lat":42.3834,"lng":-83.1024},{"city":"Xiamen","lat":24.4796,"lng":118.0889},{"city":"Mashhad","lat":36.3264,"lng":59.5433},{"city":"Montréal","lat":45.5089,"lng":-73.5617},{"city":"Fuzhou","lat":26.0743,"lng":119.2964},{"city":"Wuhu","lat":31.3526,"lng":118.4331},{"city":"Medan","lat":3.5894,"lng":98.6739},{"city":"Yulinshi","lat":38.2858,"lng":109.7341},{"city":"Fuzhou","lat":27.949,"lng":116.358},{"city":"Wenzhou","lat":27.9938,"lng":120.6993},{"city":"Changzhou","lat":31.811,"lng":119.974},{"city":"Puyang","lat":35.7627,"lng":115.0292},{"city":"Nanchang","lat":28.683,"lng":115.858},{"city":"Baicheng","lat":23.903,"lng":106.619},{"city":"Seattle","lat":47.6211,"lng":-122.3244},{"city":"Ibadan","lat":7.3964,"lng":3.9167},{"city":"Jiaozuo","lat":35.2157,"lng":113.2419},{"city":"Nādampālaiyam","lat":11.0125,"lng":76.9714},{"city":"Deyang","lat":31.127,"lng":104.398},{"city":"Busan","lat":35.18,"lng":129.075},{"city":"Hechi","lat":24.693,"lng":108.085},{"city":"Tangshan","lat":39.6294,"lng":118.1739},{"city":"Lucknow","lat":26.85,"lng":80.95},{"city":"San Francisco","lat":37.7558,"lng":-122.4449},{"city":"Boankra","lat":6.6919,"lng":-1.4051},{"city":"Dubai","lat":25.2631,"lng":55.2972},{"city":"Anshan","lat":41.108,"lng":122.994},{"city":"Guozhen","lat":34.3609,"lng":107.1751},{"city":"Baojishi","lat":34.363,"lng":107.238},{"city":"Qinzhou","lat":21.981,"lng":108.654},{"city":"Guiyang","lat":26.647,"lng":106.63},{"city":"Wuxi","lat":31.5667,"lng":120.2833},{"city":"Kannankulam","lat":10.52,"lng":76.21},{"city":"Caracas","lat":10.4806,"lng":-66.9036},{"city":"Kotla Qasim Khan","lat":32.5833,"lng":73.75},{"city":"Casablanca","lat":33.5333,"lng":-7.5833},{"city":"Hanzhong","lat":33.0664,"lng":107.0232},{"city":"Shiyan","lat":32.629,"lng":110.7987},{"city":"Guang’an","lat":30.4564,"lng":106.6326},{"city":"Faisalabad","lat":31.4167,"lng":73.0911},{"city":"Changzhi","lat":36.195,"lng":113.117},{"city":"Tongren","lat":27.7316,"lng":109.1895},{"city":"Bengbu","lat":32.917,"lng":117.389},{"city":"Leshan","lat":29.552,"lng":103.766},{"city":"Santa Cruz de la Sierra","lat":-17.7892,"lng":-63.1975},{"city":"Neijiang","lat":29.5802,"lng":105.058},{"city":"Zhenjiang","lat":32.188,"lng":119.424},{"city":"Qinhuangdao","lat":39.8882,"lng":119.5202},{"city":"Bursa","lat":40.1833,"lng":29.05},{"city":"Tashkent","lat":41.3111,"lng":69.2797},{"city":"Guayaquil","lat":-2.19,"lng":-79.8875},{"city":"Jaipur","lat":26.9,"lng":75.8},{"city":"Lanzhou","lat":36.0606,"lng":103.8268},{"city":"Ouagadougou","lat":12.3686,"lng":-1.5275},{"city":"Athens","lat":37.9842,"lng":23.7281},{"city":"San Diego","lat":32.8313,"lng":-117.1222},{"city":"Guatemala City","lat":14.6417,"lng":-90.5133},{"city":"Kuwait City","lat":29.3697,"lng":47.9783},{"city":"Qincheng","lat":34.5815,"lng":105.7248},{"city":"İzmir","lat":38.42,"lng":27.14},{"city":"Quezon City","lat":14.65,"lng":121.0475},{"city":"Kyiv","lat":50.45,"lng":30.5233},{"city":"Kottārasshēri","lat":10.775,"lng":76.651},{"city":"Meishan","lat":30.0771,"lng":103.8484},{"city":"Incheon","lat":37.4833,"lng":126.6333},{"city":"Ningde","lat":26.6662,"lng":119.5477},{"city":"Zhongshan","lat":22.517,"lng":113.3925},{"city":"Minneapolis","lat":44.9635,"lng":-93.2678},{"city":"Tampa","lat":27.9945,"lng":-82.4447},{"city":"Putian","lat":25.4526,"lng":119.0078},{"city":"Mbuji-Mayi","lat":-6.15,"lng":23.6},{"city":"Tongliao","lat":43.654,"lng":122.243},{"city":"Chaoyang","lat":41.571,"lng":120.453},{"city":"Hohhot","lat":40.842,"lng":111.749},{"city":"Pyongyang","lat":39.0167,"lng":125.7475},{"city":"Shaoguan","lat":24.811,"lng":113.597},{"city":"Taichung","lat":24.1439,"lng":120.6794},{"city":"Cali","lat":3.4206,"lng":-76.5222},{"city":"Heyuan","lat":23.7443,"lng":114.7002},{"city":"Wuzhou","lat":23.4767,"lng":111.279},{"city":"Pretoria","lat":-25.7461,"lng":28.1881},{"city":"Suining","lat":30.533,"lng":105.593},{"city":"Omdurman","lat":15.6835,"lng":32.4629},{"city":"Weihai","lat":37.5133,"lng":122.1205},{"city":"Rizhao","lat":35.417,"lng":119.527},{"city":"Malang","lat":-7.98,"lng":112.62},{"city":"Stuttgart","lat":48.7775,"lng":9.18},{"city":"Daqing","lat":46.589,"lng":125.104},{"city":"Rome","lat":41.8931,"lng":12.4828},{"city":"Kaohsiung","lat":22.615,"lng":120.2975},{"city":"Brooklyn","lat":40.6501,"lng":-73.9496},{"city":"Xiangtan","lat":27.8313,"lng":112.9454},{"city":"Bazhou","lat":31.868,"lng":106.748},{"city":"Handan","lat":36.601,"lng":114.487},{"city":"Brisbane","lat":-27.4678,"lng":153.0281},{"city":"Jinzhou","lat":41.129,"lng":121.148},{"city":"Denver","lat":39.762,"lng":-104.8758},{"city":"Xinzhou","lat":38.416,"lng":112.734},{"city":"Nanping","lat":26.6418,"lng":118.1774},{"city":"Gāzipura","lat":23.9234,"lng":90.3959},{"city":"Shanwei","lat":22.7872,"lng":115.3756},{"city":"Maracaibo","lat":10.6333,"lng":-71.6333},{"city":"Chaozhou","lat":23.658,"lng":116.622},{"city":"Baotou","lat":40.6213,"lng":109.9532},{"city":"Longyan","lat":25.076,"lng":117.017},{"city":"Weifang","lat":36.708,"lng":119.162},{"city":"Huai’an","lat":33.551,"lng":119.113},{"city":"Zibo","lat":36.8138,"lng":118.055},{"city":"Attadappa","lat":11.8689,"lng":75.3555},{"city":"Munich","lat":48.1375,"lng":11.575},{"city":"Gulou","lat":26.0865,"lng":119.298},{"city":"Birmingham","lat":52.48,"lng":-1.9025},{"city":"Valencia","lat":10.1833,"lng":-68},{"city":"Damascus","lat":33.502,"lng":36.2981},{"city":"Chattogram","lat":22.335,"lng":91.8325},{"city":"Brazzaville","lat":-4.2667,"lng":15.2667},{"city":"Yangjiang","lat":21.857,"lng":111.983},{"city":"Sanaa","lat":15.3483,"lng":44.2064},{"city":"Barmhān Kalān","lat":19.1972,"lng":72.9722},{"city":"Medellín","lat":6.2308,"lng":-75.5906},{"city":"Dingxi","lat":35.608,"lng":104.592},{"city":"Shaoxing","lat":30.0511,"lng":120.5833},{"city":"Yantai","lat":37.4646,"lng":121.4478},{"city":"Huizhou","lat":23.112,"lng":114.416},{"city":"Xuanzhou","lat":30.939,"lng":118.759},{"city":"Mirzāpur","lat":25.146,"lng":82.569},{"city":"Hamburg","lat":53.55,"lng":10},{"city":"Taipei","lat":25.0375,"lng":121.5625},{"city":"Ankang","lat":32.6854,"lng":109.029},{"city":"Zigong","lat":29.339,"lng":104.779},{"city":"Sanming","lat":26.2634,"lng":117.6389},{"city":"Toluca","lat":19.2925,"lng":-99.6569},{"city":"Huangshi","lat":30.2011,"lng":115.039},{"city":"Yaoundé","lat":3.8667,"lng":11.5167},{"city":"Zhuhai","lat":22.2742,"lng":113.5719},{"city":"Huludao","lat":40.711,"lng":120.837},{"city":"Baoshan","lat":25.112,"lng":99.161},{"city":"Mecca","lat":21.4225,"lng":39.8261},{"city":"Vancouver","lat":49.25,"lng":-123.1},{"city":"Lianshan","lat":40.7523,"lng":120.828},{"city":"Beirut","lat":33.8981,"lng":35.5058},{"city":"Salvador","lat":-12.9831,"lng":-38.4928},{"city":"Bucharest","lat":44.4325,"lng":26.1039},{"city":"Longba","lat":33.3702,"lng":104.9603},{"city":"Nāgpur","lat":21.1497,"lng":79.0806},{"city":"Queens","lat":40.7498,"lng":-73.7976},{"city":"Tieling","lat":42.2237,"lng":123.726},{"city":"Yunfu","lat":22.9152,"lng":112.0445},{"city":"Bekasi","lat":-6.2333,"lng":107},{"city":"Daegu","lat":35.8717,"lng":128.6017},{"city":"Ghāziābād","lat":28.67,"lng":77.42},{"city":"Luoyang","lat":34.6197,"lng":112.4539},{"city":"Luohe","lat":33.5804,"lng":114.0166},{"city":"Algiers","lat":36.7325,"lng":3.0872},{"city":"Anshun","lat":26.2531,"lng":105.9476},{"city":"Huainan","lat":32.6314,"lng":117.0194},{"city":"Depok","lat":-6.394,"lng":106.8225},{"city":"Konya","lat":37.8667,"lng":32.4833},{"city":"Haiphong","lat":20.8651,"lng":106.6838},{"city":"Yanjiang","lat":30.129,"lng":104.627},{"city":"Guangyuan","lat":32.436,"lng":105.844},{"city":"Baku","lat":40.3667,"lng":49.8352},{"city":"Yingkou","lat":40.625,"lng":122.219},{"city":"Mudanjiang","lat":44.5514,"lng":129.6329},{"city":"Riverside","lat":33.9381,"lng":-117.3949},{"city":"Fukuoka","lat":33.59,"lng":130.4017},{"city":"Nantong","lat":31.981,"lng":120.894},{"city":"Lincang","lat":23.884,"lng":100.089},{"city":"Las Vegas","lat":36.2333,"lng":-115.2654},{"city":"Haikou","lat":20.0186,"lng":110.3488},{"city":"Yuxi","lat":24.347,"lng":102.527},{"city":"Tangerang","lat":-6.1703,"lng":106.6403},{"city":"Supaul","lat":26.126,"lng":86.605},{"city":"Almaty","lat":43.24,"lng":76.915},{"city":"Vienna","lat":48.2083,"lng":16.3725},{"city":"Eşfahān","lat":32.6653,"lng":51.6703},{"city":"Xining","lat":36.6224,"lng":101.7804},{"city":"Jincheng","lat":35.491,"lng":112.852},{"city":"Baltimore","lat":39.3051,"lng":-76.6144},{"city":"Dandong","lat":40.1167,"lng":124.3833},{"city":"Yan’an","lat":36.65,"lng":109.494},{"city":"Qinbaling","lat":35.7091,"lng":107.6436},{"city":"Gaoping","lat":30.7824,"lng":106.1281},{"city":"Awka","lat":6.2069,"lng":7.0678},{"city":"Taizhou","lat":28.6557,"lng":121.4208},{"city":"Ma’anshan","lat":31.669,"lng":118.507},{"city":"Jiamusi","lat":46.8,"lng":130.319},{"city":"Perth","lat":-31.9558,"lng":115.8597},{"city":"Gaziantep","lat":37.0628,"lng":37.3792},{"city":"Phnom Penh","lat":11.5696,"lng":104.921},{"city":"St. Louis","lat":38.6359,"lng":-90.2451},{"city":"Mogadishu","lat":2.0392,"lng":45.3419},{"city":"Lishui","lat":28.468,"lng":119.923},{"city":"Kowloon","lat":22.3167,"lng":114.1833},{"city":"Córdoba","lat":-31.4167,"lng":-64.1833},{"city":"Zamboanga City","lat":6.9042,"lng":122.0761},{"city":"Rawalpindi","lat":33.6,"lng":73.0333},{"city":"Havana","lat":23.1367,"lng":-82.3589},{"city":"Chongzuo","lat":22.377,"lng":107.365},{"city":"Portland","lat":45.5371,"lng":-122.65},{"city":"Laibin","lat":23.7501,"lng":109.2212},{"city":"San Antonio","lat":29.4632,"lng":-98.5238},{"city":"Vadodara","lat":22.3,"lng":73.2},{"city":"Qingyang","lat":24.7816,"lng":118.5517},{"city":"Rājkot","lat":22.3,"lng":70.7833},{"city":"Shangzhou","lat":33.8734,"lng":109.9186},{"city":"Vishākhapatnam","lat":17.7042,"lng":83.2978},{"city":"Shengli","lat":37.434,"lng":118.6746},{"city":"Sanmenxia","lat":34.7732,"lng":111.2004},{"city":"Warsaw","lat":52.23,"lng":21.0111},{"city":"Gujranwala","lat":32.1567,"lng":74.19},{"city":"Hezhou","lat":24.4042,"lng":111.5672},{"city":"Aleppo","lat":36.2319,"lng":37.1681},{"city":"Tijuana","lat":32.525,"lng":-117.0333},{"city":"Puning","lat":23.298,"lng":116.166},{"city":"Indore","lat":22.7167,"lng":75.8472},{"city":"Minsk","lat":53.9006,"lng":27.5586},{"city":"Karaj","lat":35.8292,"lng":50.9675},{"city":"Kananga","lat":-5.897,"lng":22.4488},{"city":"Huaibei","lat":33.956,"lng":116.798},{"city":"Peshawar","lat":34.0144,"lng":71.5675},{"city":"Sacramento","lat":38.5677,"lng":-121.4685},{"city":"Sapporo","lat":43.0619,"lng":141.3544},{"city":"Tilburg","lat":51.5572,"lng":5.0911},{"city":"Austin","lat":30.3005,"lng":-97.7522},{"city":"Orlando","lat":28.4773,"lng":-81.337},{"city":"Davao","lat":7.07,"lng":125.6},{"city":"Songjiang","lat":31.0058,"lng":121.2333},{"city":"Yinchuan","lat":38.485,"lng":106.225},{"city":"Abhepur","lat":39.41,"lng":116.38},{"city":"Thāne","lat":19.1972,"lng":72.9722},{"city":"Multan","lat":30.1978,"lng":71.4697},{"city":"Port Harcourt","lat":4.8242,"lng":7.0336},{"city":"Fushun","lat":41.881,"lng":123.957},{"city":"Tainan","lat":22.9833,"lng":120.1833},{"city":"Pingliang","lat":35.5424,"lng":106.6649},{"city":"Siping","lat":43.1668,"lng":124.3506},{"city":"San Juan","lat":18.3985,"lng":-66.061},{"city":"Pingxiang","lat":27.659,"lng":113.887},{"city":"Bhopāl","lat":23.2599,"lng":77.4126},{"city":"Mosul","lat":36.3667,"lng":43.1167},{"city":"Diyarbakır","lat":37.91,"lng":40.24},{"city":"Lubumbashi","lat":-11.6647,"lng":27.4794},{"city":"Benin City","lat":6.3333,"lng":5.6222},{"city":"Curitiba","lat":-25.4297,"lng":-49.2719},{"city":"San Jose","lat":37.3012,"lng":-121.848},{"city":"Shuyangzha","lat":34.1299,"lng":118.7734},{"city":"Adana","lat":37,"lng":35.3213},{"city":"Quito","lat":-0.22,"lng":-78.5125},{"city":"Āgra","lat":27.18,"lng":78.02},{"city":"Peyanvilai","lat":8.9,"lng":77.9833},{"city":"Lusaka","lat":-15.4167,"lng":28.2833},{"city":"Indianapolis","lat":39.7771,"lng":-86.1458},{"city":"Hyderabad City","lat":25.3792,"lng":68.3683},{"city":"Pimpri-Chinchwad","lat":18.6186,"lng":73.8037},{"city":"Maracay","lat":10.2469,"lng":-67.5961},{"city":"Masqaţ","lat":23.614,"lng":58.5911},{"city":"Montevideo","lat":-34.9056,"lng":-56.1842},{"city":"Pittsburgh","lat":40.4397,"lng":-79.9763},{"city":"Cincinnati","lat":39.1413,"lng":-84.506},{"city":"Manhattan","lat":40.7834,"lng":-73.9662},{"city":"Kansas City","lat":39.1238,"lng":-94.5541},{"city":"Budapest","lat":47.4983,"lng":19.0408},{"city":"Patna","lat":25.594,"lng":85.1376},{"city":"Kampala","lat":0.3136,"lng":32.5811},{"city":"Beihai","lat":21.481,"lng":109.12},{"city":"Sanzhou","lat":30.82,"lng":108.4},{"city":"Cleveland","lat":41.4764,"lng":-81.6805},{"city":"Conakry","lat":9.5092,"lng":-13.7122},{"city":"Ximeicun","lat":24.9612,"lng":118.3849},{"city":"Caloocan City","lat":14.65,"lng":120.97},{"city":"Ecatepec","lat":19.6097,"lng":-99.06},{"city":"Yushan","lat":31.322,"lng":120.985},{"city":"Fuxin","lat":42.022,"lng":121.67},{"city":"Novosibirsk","lat":55.05,"lng":82.95},{"city":"Bilāspur","lat":22.09,"lng":82.15},{"city":"Semarang","lat":-6.99,"lng":110.4225},{"city":"Jingdezhen","lat":29.2917,"lng":117.1986},{"city":"Ludhiāna","lat":30.91,"lng":75.85},{"city":"Liaoyang","lat":41.279,"lng":123.176},{"city":"Jiangyin","lat":31.839,"lng":120.295},{"city":"Valencia","lat":39.47,"lng":-0.3764},{"city":"Shuozhou","lat":39.3317,"lng":112.4329},{"city":"León de los Aldama","lat":21.1167,"lng":-101.6833},{"city":"Columbus","lat":39.9862,"lng":-82.9855},{"city":"Puebla","lat":19.0333,"lng":-98.1833},{"city":"Biên Hòa","lat":10.95,"lng":106.8167},{"city":"Chengtangcun","lat":35.0833,"lng":117.15},{"city":"Yopougon","lat":5.3748,"lng":-4.0867},{"city":"Hebi","lat":35.748,"lng":114.297},{"city":"Shīrāz","lat":29.61,"lng":52.5425},{"city":"Dushanbe","lat":38.5367,"lng":68.78},{"city":"Madurai","lat":9.9252,"lng":78.1198},{"city":"Huzhou","lat":30.8925,"lng":120.0875},{"city":"Harare","lat":-17.8292,"lng":31.0522},{"city":"Tabrīz","lat":38.0817,"lng":46.2992},{"city":"Jamshedpur","lat":22.7925,"lng":86.1842},{"city":"Baicheng","lat":45.62,"lng":122.838},{"city":"San José","lat":9.9325,"lng":-84.08},{"city":"Shaoyang","lat":32.912,"lng":119.8526},{"city":"San Salvador","lat":13.6989,"lng":-89.1914},{"city":"Palembang","lat":-2.9861,"lng":104.7556},{"city":"Kawasaki","lat":35.5167,"lng":139.7},{"city":"Kōbe","lat":34.69,"lng":135.1956},{"city":"Jiaxing","lat":30.747,"lng":120.756},{"city":"Zhangjiajie","lat":29.117,"lng":110.479},{"city":"Baiyin","lat":36.5451,"lng":104.1389},{"city":"Guiping","lat":23.4,"lng":110.0833},{"city":"Changshu","lat":31.656,"lng":120.753},{"city":"Jixi","lat":45.295,"lng":130.969},{"city":"Xushan","lat":30.1667,"lng":121.2333},{"city":"Lomé","lat":6.1308,"lng":1.2153},{"city":"Niamey","lat":13.515,"lng":2.1175},{"city":"Gwangju","lat":35.1653,"lng":126.8486},{"city":"Recife","lat":-8.0539,"lng":-34.8808},{"city":"Nāsik","lat":19.9975,"lng":73.7898},{"city":"Abu Dhabi","lat":24.4667,"lng":54.3667},{"city":"Onitsha","lat":6.1667,"lng":6.7833},{"city":"Amsterdam","lat":52.3728,"lng":4.8936},{"city":"Vijayavāda","lat":16.5193,"lng":80.6305},{"city":"Zapopan","lat":20.7167,"lng":-103.4},{"city":"Daejeon","lat":36.35,"lng":127.385},{"city":"Bronx","lat":40.8501,"lng":-73.8662},{"city":"Auckland","lat":-36.8492,"lng":174.7653},{"city":"Yekaterinburg","lat":56.8356,"lng":60.6128},{"city":"Wuwei","lat":37.929,"lng":102.638},{"city":"Jinhua","lat":29.079,"lng":119.647},{"city":"Kyōto","lat":35.0117,"lng":135.7683},{"city":"Pizhou","lat":34.398,"lng":117.89},{"city":"Yangshe","lat":31.8767,"lng":120.556},{"city":"Dakar","lat":14.6726,"lng":-17.432},{"city":"Charlotte","lat":35.2083,"lng":-80.8303},{"city":"Yucheng","lat":30.01,"lng":103.0415},{"city":"Kayseri","lat":38.7225,"lng":35.4875},{"city":"Virginia Beach","lat":36.7335,"lng":-76.0435},{"city":"Rui’an","lat":27.7833,"lng":120.625},{"city":"Muscat","lat":23.6139,"lng":58.5922},{"city":"Kharkiv","lat":49.9925,"lng":36.2311},{"city":"Pointe-Noire","lat":-4.7975,"lng":11.8503},{"city":"Medina","lat":24.47,"lng":39.61},{"city":"Sangereng","lat":-6.2889,"lng":106.7181},{"city":"Farīdābād","lat":28.4211,"lng":77.3078},{"city":"Sofia","lat":42.6979,"lng":23.3217},{"city":"Ulaanbaatar","lat":47.9214,"lng":106.9055},{"city":"Adelaide","lat":-34.9275,"lng":138.6},{"city":"Prague","lat":50.0875,"lng":14.4214},{"city":"Wenling","lat":28.3667,"lng":121.3667},{"city":"Copenhagen","lat":55.6805,"lng":12.5615},{"city":"Najafgarh","lat":28.6125,"lng":76.9847},{"city":"Lianjiang","lat":21.7333,"lng":110.2833},{"city":"Helsinki","lat":60.1708,"lng":24.9375},{"city":"Samsun","lat":41.2903,"lng":36.3336},{"city":"Milan","lat":45.4669,"lng":9.19},{"city":"Antalya","lat":36.8874,"lng":30.7075},{"city":"Santiago","lat":19.4572,"lng":-70.6889},{"city":"Chizhou","lat":30.6654,"lng":117.4916},{"city":"Makassar","lat":-5.1331,"lng":119.4136},{"city":"Porto Alegre","lat":-30.0328,"lng":-51.23},{"city":"Huangshan","lat":29.7149,"lng":118.3376},{"city":"Gaozhou","lat":21.9244,"lng":110.8422},{"city":"Barranquilla","lat":10.9833,"lng":-74.8019},{"city":"Al Başrah","lat":30.515,"lng":47.81},{"city":"Benxi","lat":41.3039,"lng":123.7649},{"city":"Saitama","lat":35.8614,"lng":139.6456},{"city":"Ahvāz","lat":31.3047,"lng":48.6783},{"city":"Guarulhos","lat":-23.4667,"lng":-46.5333},{"city":"Leizhou","lat":20.9143,"lng":110.0967},{"city":"Juárez","lat":31.745,"lng":-106.485},{"city":"Mandalay","lat":21.9831,"lng":96.0844},{"city":"Yangquan","lat":37.8571,"lng":113.5804},{"city":"Fuqing","lat":25.7167,"lng":119.3833},{"city":"Xintai","lat":35.909,"lng":117.768},{"city":"Wusong","lat":30.945,"lng":117.811},{"city":"Tongling","lat":30.9456,"lng":117.8114},{"city":"Calgary","lat":51.05,"lng":-114.0667},{"city":"Meerut","lat":28.98,"lng":77.71},{"city":"Jacksonville","lat":30.3322,"lng":-81.6749},{"city":"Kuaidamao","lat":41.7283,"lng":125.9397},{"city":"Huazhou","lat":21.664,"lng":110.6396},{"city":"Milwaukee","lat":43.0642,"lng":-87.9675},{"city":"Wuzhong","lat":37.9978,"lng":106.1986},{"city":"Belém","lat":-1.4558,"lng":-48.5039},{"city":"Cacuaco","lat":-8.8053,"lng":13.2444},{"city":"Rosario","lat":-32.9575,"lng":-60.6394},{"city":"Tangier","lat":35.7767,"lng":-5.8039},{"city":"Antananarivo","lat":-18.91,"lng":47.525},{"city":"Canagatan","lat":18,"lng":121.8},{"city":"Soweto","lat":-26.2678,"lng":27.8585},{"city":"Providence","lat":41.823,"lng":-71.4187},{"city":"Xiantao","lat":30.328,"lng":113.443},{"city":"Jabalpur","lat":23.1667,"lng":79.9333},{"city":"Huaiyin","lat":33.5819,"lng":119.028},{"city":"Yutan","lat":28.278,"lng":112.552},{"city":"Kazan","lat":55.7964,"lng":49.1089},{"city":"Bagam","lat":1.13,"lng":104.0531},{"city":"Dayan","lat":26.8552,"lng":100.2259},{"city":"Comayagüela","lat":14.098,"lng":-87.21},{"city":"Brussels","lat":50.8467,"lng":4.3525},{"city":"Laiwu","lat":36.1833,"lng":117.6667},{"city":"Huazhou","lat":32.688,"lng":112.087},{"city":"Sharjah","lat":25.3575,"lng":55.3908},{"city":"Kalyān","lat":19.24,"lng":73.13},{"city":"Rucheng","lat":32.246,"lng":120.591},{"city":"Barquisimeto","lat":10.0636,"lng":-69.3347},{"city":"Yongcheng","lat":33.9299,"lng":116.45},{"city":"Sumedang","lat":-6.84,"lng":107.9208},{"city":"Cần Thơ","lat":10.0333,"lng":105.7833},{"city":"Suwon","lat":37.2667,"lng":127.0167},{"city":"Yiwu","lat":29.3069,"lng":120.0753},{"city":"Vasai-Virar","lat":19.47,"lng":72.8},{"city":"Campinas","lat":-22.9009,"lng":-47.0573},{"city":"Dadukou","lat":26.5824,"lng":101.7184},{"city":"Lingcheng","lat":22.708,"lng":110.354},{"city":"Shuangyashan","lat":46.6762,"lng":131.1416},{"city":"Nizhniy Novgorod","lat":56.3269,"lng":44.0075},{"city":"Pānīpat","lat":29.3875,"lng":76.97},{"city":"Qom","lat":34.64,"lng":50.8764},{"city":"Mombasa","lat":-4.05,"lng":39.6667},{"city":"Hargeysa","lat":9.56,"lng":44.065},{"city":"Baidoa","lat":3.1167,"lng":43.65},{"city":"Vārānasi","lat":25.3189,"lng":83.0128},{"city":"Hiroshima","lat":34.3914,"lng":132.4519},{"city":"Chiang Mai","lat":18.7953,"lng":98.9986},{"city":"Belgrade","lat":44.8178,"lng":20.4569},{"city":"Maiduguri","lat":11.8372,"lng":13.1542},{"city":"Kalleli","lat":9.2807,"lng":76.8697},{"city":"Batam Centre","lat":1.1272,"lng":104.0556},{"city":"Pingdu","lat":36.7769,"lng":119.9884},{"city":"Rongcheng","lat":26.218,"lng":104.103},{"city":"Mbandaka","lat":0.0478,"lng":18.2558},{"city":"Xinyu","lat":27.8186,"lng":114.9167},{"city":"Doha","lat":25.2867,"lng":51.5333},{"city":"Shymkent","lat":42.3167,"lng":69.5958},{"city":"Tripoli","lat":32.8872,"lng":13.1914},{"city":"Srīnagar","lat":34.09,"lng":74.79},{"city":"Nashville","lat":36.1715,"lng":-86.7842},{"city":"Chelyabinsk","lat":55.1547,"lng":61.3758},{"city":"Aurangābād","lat":19.88,"lng":75.32},{"city":"Cilacap","lat":-7.7167,"lng":109.017},{"city":"Xinhualu","lat":34.3964,"lng":113.7402},{"city":"Salt Lake City","lat":40.7776,"lng":-111.9311},{"city":"Guankou","lat":28.1637,"lng":113.6433},{"city":"Bandar Lampung","lat":-5.45,"lng":105.2667},{"city":"Dhanbād","lat":23.7998,"lng":86.4305},{"city":"Nay Pyi Taw","lat":19.7475,"lng":96.115},{"city":"Aba","lat":5.1167,"lng":7.3667},{"city":"Jingling","lat":30.664,"lng":113.167},{"city":"Zhuji","lat":29.7167,"lng":120.2333},{"city":"Tegucigalpa","lat":14.1057,"lng":-87.204},{"city":"Kigali","lat":-1.9536,"lng":30.0606},{"city":"Samara","lat":53.2028,"lng":50.1408},{"city":"Yingtan","lat":28.2721,"lng":117.0395},{"city":"Edmonton","lat":53.5344,"lng":-113.4903},{"city":"Raleigh","lat":35.8324,"lng":-78.6429},{"city":"Bishkek","lat":42.8667,"lng":74.5667},{"city":"Bujumbura","lat":-3.3833,"lng":29.3667},{"city":"Guyuan","lat":36.01,"lng":106.257},{"city":"Leiyang","lat":26.4223,"lng":112.8598},{"city":"Krasnodar","lat":45.0333,"lng":38.9667},{"city":"Rostov","lat":47.2225,"lng":39.71},{"city":"Maputo","lat":-25.9153,"lng":32.5764},{"city":"Bukavu","lat":-2.5061,"lng":28.8608},{"city":"Amritsar","lat":31.64,"lng":74.86},{"city":"Shagamu","lat":6.8333,"lng":3.65},{"city":"Alīgarh","lat":27.88,"lng":78.08},{"city":"Zhangye","lat":38.9248,"lng":100.4499},{"city":"Ufa","lat":54.7261,"lng":55.9475},{"city":"Santo Domingo","lat":18.4764,"lng":-69.8933},{"city":"Ulsan","lat":35.55,"lng":129.3167},{"city":"Rongcheng","lat":29.8402,"lng":112.9048},{"city":"Tbilisi","lat":41.7225,"lng":44.7925},{"city":"Guwāhāti","lat":26.1722,"lng":91.7458},{"city":"Fès","lat":34.0433,"lng":-5.0033},{"city":"Yingchuan","lat":34.142,"lng":113.489},{"city":"Ninh Bình","lat":20.25,"lng":105.8333},{"city":"Yerevan","lat":40.1814,"lng":44.5144},{"city":"Mwanza","lat":-2.5167,"lng":32.9},{"city":"Omsk","lat":54.9833,"lng":73.3667},{"city":"Mexicali","lat":32.6633,"lng":-115.4678},{"city":"Sevilla","lat":37.39,"lng":-5.99},{"city":"Ikare","lat":7.5167,"lng":5.75},{"city":"Dingzhou","lat":38.516,"lng":114.99},{"city":"Tamale","lat":9.4075,"lng":-0.8533},{"city":"Yuyao","lat":30.05,"lng":121.15},{"city":"Goiânia","lat":-16.6806,"lng":-49.2564},{"city":"Krasnoyarsk","lat":56.0089,"lng":92.8719},{"city":"Cologne","lat":50.9364,"lng":6.9528},{"city":"Ubungo","lat":-6.7889,"lng":39.2056},{"city":"Yicheng","lat":31.36,"lng":119.815},{"city":"Richmond","lat":37.5295,"lng":-77.4756},{"city":"Kisangani","lat":0.5167,"lng":25.2},{"city":"Ezhou","lat":30.3914,"lng":114.8949},{"city":"Astana","lat":51.1472,"lng":71.4222},{"city":"Zhufeng","lat":36,"lng":119.4167},{"city":"Nezahualcóyotl","lat":19.4081,"lng":-99.0186},{"city":"Nouakchott","lat":18.0858,"lng":-15.9785},{"city":"Hāora","lat":22.58,"lng":88.3294},{"city":"Tongjin","lat":37.2333,"lng":127.2},{"city":"Rānchi","lat":23.36,"lng":85.33},{"city":"Ciudad Nezahualcóyotl","lat":19.4006,"lng":-99.0148},{"city":"Gwalior","lat":26.2125,"lng":78.1775},{"city":"Ottawa","lat":45.4247,"lng":-75.695},{"city":"Haicheng","lat":40.8824,"lng":122.6852},{"city":"Jianguang","lat":28.1958,"lng":115.7833},{"city":"Goyang","lat":37.65,"lng":126.8},{"city":"Sendai","lat":38.2682,"lng":140.8694},{"city":"Xibeijie","lat":39.7334,"lng":98.4943},{"city":"Chandīgarh","lat":30.75,"lng":76.78},{"city":"Voronezh","lat":51.6717,"lng":39.2106},{"city":"Managua","lat":12.1364,"lng":-86.2514},{"city":"Zhongwei","lat":37.5002,"lng":105.1968},{"city":"Jiancheng","lat":30.38,"lng":104.53},{"city":"Mersin","lat":36.8,"lng":34.6333},{"city":"Shouguang","lat":36.857,"lng":118.791},{"city":"Liangshi","lat":27.26,"lng":111.7442},{"city":"São Luís","lat":-2.53,"lng":-44.3028},{"city":"Jodhpur","lat":26.28,"lng":73.02},{"city":"Memphis","lat":35.1087,"lng":-89.9663},{"city":"Matola","lat":-25.9667,"lng":32.4667},{"city":"Ogbomoso","lat":8.1333,"lng":4.25},{"city":"Sanya","lat":18.2533,"lng":109.5036},{"city":"Rangapukur","lat":25.5206,"lng":89.2147},{"city":"Ashgabat","lat":37.9375,"lng":58.38},{"city":"Enugu","lat":6.5,"lng":7.5},{"city":"Linhai","lat":28.85,"lng":121.1167},{"city":"Perm","lat":58,"lng":56.3167},{"city":"Shubrā al Khaymah","lat":30.1286,"lng":31.2422},{"city":"Monrovia","lat":6.3133,"lng":-10.8014},{"city":"Islamabad","lat":33.6931,"lng":73.0639},{"city":"Xinyi","lat":22.3549,"lng":110.9468},{"city":"Thủ Đức","lat":10.8266,"lng":106.7609},{"city":"Āqchah","lat":36.9114,"lng":66.1858},{"city":"Odesa","lat":46.492,"lng":30.7081},{"city":"Raipur","lat":21.2444,"lng":81.6306},{"city":"Namangan","lat":41.0011,"lng":71.6683},{"city":"Changwon","lat":35.2708,"lng":128.6631},{"city":"Arequipa","lat":-16.3989,"lng":-71.5369},{"city":"Tshikapa","lat":-6.4167,"lng":20.8},{"city":"Volgograd","lat":48.7086,"lng":44.5147},{"city":"Morelia","lat":19.7683,"lng":-101.1894},{"city":"Kota","lat":25.18,"lng":75.83},{"city":"Quetta","lat":30.1833,"lng":67},{"city":"Oklahoma City","lat":35.4676,"lng":-97.5136},{"city":"Domaa-Ahenkro","lat":7.2739,"lng":-2.8735},{"city":"Bareilly","lat":28.3667,"lng":79.4306},{"city":"Liaoyuan","lat":42.888,"lng":125.1447},{"city":"Stockholm","lat":59.3275,"lng":18.0547},{"city":"Bordeaux","lat":44.84,"lng":-0.58},{"city":"Taixing","lat":32.159,"lng":120.029},{"city":"Lilongwe","lat":-13.9669,"lng":33.7873},{"city":"Port-au-Prince","lat":18.5425,"lng":-72.3386},{"city":"Esenyurt","lat":41.0342,"lng":28.68},{"city":"Pekanbaru","lat":0.5092,"lng":101.4453},{"city":"Bogor","lat":-6.5966,"lng":106.7972},{"city":"Ciudad Guayana","lat":8.3667,"lng":-62.65},{"city":"Chiba","lat":35.6073,"lng":140.1064},{"city":"Kirkuk","lat":35.4667,"lng":44.4},{"city":"Shuizhai","lat":33.4658,"lng":114.8753},{"city":"Qianxi","lat":27.0087,"lng":106.0323},{"city":"Hartford","lat":41.7661,"lng":-72.6834},{"city":"Dnipro","lat":48.4675,"lng":35.04},{"city":"Baishan","lat":41.944,"lng":126.4147},{"city":"Nārāyanganj","lat":23.6167,"lng":90.5},{"city":"Gqeberha","lat":-33.9581,"lng":25.6},{"city":"Huilong","lat":31.87,"lng":121.703},{"city":"Málaga","lat":36.7194,"lng":-4.42},{"city":"Marrakech","lat":31.63,"lng":-8.0089},{"city":"Louisville","lat":38.1663,"lng":-85.6485},{"city":"Cebu City","lat":10.32,"lng":123.75},{"city":"Asmara","lat":15.3358,"lng":38.9411},{"city":"Coimbatore","lat":11.0008,"lng":76.9633},{"city":"Maceió","lat":-9.6658,"lng":-35.735},{"city":"Nada","lat":19.5209,"lng":109.5808},{"city":"Fangchenggang","lat":21.6867,"lng":108.3547},{"city":"Solāpur","lat":17.68,"lng":75.92},{"city":"Freetown","lat":8.4833,"lng":-13.2331},{"city":"Kaiyuan","lat":36.0193,"lng":113.86},{"city":"Buffalo","lat":42.9018,"lng":-78.8487},{"city":"Santo Domingo Este","lat":18.4855,"lng":-69.8734},{"city":"Vientiane","lat":17.98,"lng":102.63},{"city":"Kermānshāh","lat":34.3369,"lng":47.0911},{"city":"Kibanseke Première","lat":-4.4419,"lng":15.395},{"city":"Seberang Jaya","lat":5.3909,"lng":100.4104},{"city":"Sale","lat":34.0333,"lng":-6.8},{"city":"Hubli","lat":15.3502,"lng":75.1376},{"city":"El Alto","lat":-16.5047,"lng":-68.1633},{"city":"Çankaya","lat":39.9244,"lng":32.8856},{"city":"Hwasu-dong","lat":37.1997,"lng":126.8314},{"city":"Yingcheng","lat":24.21,"lng":113.401},{"city":"Fort Worth","lat":32.7817,"lng":-97.3474},{"city":"Setagaya","lat":35.6466,"lng":139.6532},{"city":"Keçiören","lat":40,"lng":32.8667},{"city":"Luocheng","lat":22.7689,"lng":111.5697},{"city":"Jerusalem","lat":31.7789,"lng":35.2256},{"city":"Khartoum North","lat":15.6333,"lng":32.6333},{"city":"Meishan","lat":34.167,"lng":112.844},{"city":"Mushin","lat":6.5333,"lng":3.35},{"city":"Trujillo","lat":-8.112,"lng":-79.0288},{"city":"Kitakyūshū","lat":33.8833,"lng":130.8833},{"city":"Aguascalientes","lat":21.876,"lng":-102.296},{"city":"Khulna","lat":22.8167,"lng":89.55},{"city":"Chihuahua","lat":28.6369,"lng":-106.0769},{"city":"Bridgeport","lat":41.1918,"lng":-73.1954},{"city":"Xin’an","lat":34.286,"lng":118.355},{"city":"Mysore","lat":12.3086,"lng":76.6531},{"city":"Kashgar","lat":39.4681,"lng":75.9938},{"city":"Sŏngnam","lat":37.4333,"lng":127.15},{"city":"New Orleans","lat":30.0687,"lng":-89.9288},{"city":"Trichinopoly","lat":10.7903,"lng":78.7047},{"city":"Cartagena","lat":10.4,"lng":-75.5},{"city":"Qingzhou","lat":36.6853,"lng":118.4796},{"city":"Naples","lat":40.8358,"lng":14.2486},{"city":"Santiago del Estero","lat":-27.7833,"lng":-64.2667},{"city":"Naucalpan de Juárez","lat":19.4753,"lng":-99.2378},{"city":"Masbate","lat":12.27,"lng":123.58},{"city":"Owerri","lat":5.485,"lng":7.035},{"city":"Taishan","lat":22.252,"lng":112.794},{"city":"Jiaozhou","lat":36.2647,"lng":120.0334},{"city":"Wuchuan","lat":21.441,"lng":110.779},{"city":"Wafangdian","lat":39.6271,"lng":121.9796},{"city":"La Plata","lat":-34.9211,"lng":-57.9544},{"city":"Bobo-Dioulasso","lat":11.1833,"lng":-4.2833},{"city":"Ad Dammām","lat":26.4333,"lng":50.1},{"city":"Hanchuan","lat":30.6667,"lng":113.8333},{"city":"Quzhou","lat":28.9702,"lng":118.8593},{"city":"Donetsk","lat":48.0028,"lng":37.8053},{"city":"Ashmūn","lat":30.2974,"lng":30.9764},{"city":"Bunia","lat":1.5667,"lng":30.25},{"city":"Wuchang","lat":44.924,"lng":127.158},{"city":"São Gonçalo","lat":-22.8269,"lng":-43.0539},{"city":"Hengzhou","lat":22.6799,"lng":109.2614},{"city":"Feicheng","lat":36.1861,"lng":116.7719},{"city":"Bucaramanga","lat":7.1333,"lng":-73},{"city":"Cazenga","lat":-8.8214,"lng":13.2911},{"city":"Mérida","lat":20.9667,"lng":-89.6167},{"city":"Hegang","lat":47.3501,"lng":130.298},{"city":"Osmangazi","lat":40.1983,"lng":29.06},{"city":"Morādābād","lat":28.8319,"lng":78.7764},{"city":"Bangui","lat":4.3733,"lng":18.5628},{"city":"Abeokuta","lat":7.1608,"lng":3.3483},{"city":"Cancún","lat":21.1606,"lng":-86.8475},{"city":"Zaoyang","lat":32.129,"lng":112.772},{"city":"Dongtai","lat":32.795,"lng":120.519},{"city":"Antipolo","lat":14.5842,"lng":121.1763},{"city":"Taguig City","lat":14.52,"lng":121.05},{"city":"Tabūk","lat":28.3972,"lng":36.5789},{"city":"Xishan","lat":27.6461,"lng":113.497},{"city":"Zhoushan","lat":29.9856,"lng":122.2074},{"city":"Panama City","lat":8.9711,"lng":-79.5347},{"city":"Tucson","lat":32.1541,"lng":-110.8787},{"city":"Yichun","lat":47.728,"lng":128.841},{"city":"As Sulaymānīyah","lat":35.55,"lng":45.4333},{"city":"Klang","lat":3.0223,"lng":101.5481},{"city":"Tiruppūr","lat":11.1085,"lng":77.3411},{"city":"Marseille","lat":43.2964,"lng":5.37},{"city":"Gurgaon","lat":28.456,"lng":77.029},{"city":"Yangchun","lat":22.1704,"lng":111.7916},{"city":"Ar Ramādī","lat":33.4258,"lng":43.2992},{"city":"Hai’an","lat":32.535,"lng":120.563},{"city":"Jalandhar","lat":31.326,"lng":75.5762},{"city":"Daye","lat":30.0961,"lng":114.9804},{"city":"Zhongxiang","lat":31.168,"lng":112.588},{"city":"Gaomi","lat":36.3833,"lng":119.75},{"city":"Teresina","lat":-5.0903,"lng":-42.8167},{"city":"Lhasa","lat":29.6534,"lng":91.1719},{"city":"Ipoh","lat":4.6,"lng":101.065},{"city":"Saltillo","lat":25.4231,"lng":-100.9919},{"city":"Aden","lat":12.8,"lng":45.0333},{"city":"El Paso","lat":31.8476,"lng":-106.43},{"city":"Gongzhuling","lat":43.5053,"lng":124.8224},{"city":"Lianyuan","lat":27.692,"lng":111.664},{"city":"Ikeja","lat":6.6,"lng":3.35},{"city":"Tyumen","lat":57.15,"lng":65.5333},{"city":"Cochabamba","lat":-17.3883,"lng":-66.1597},{"city":"Portsmouth","lat":50.8058,"lng":-1.0872},{"city":"Southampton","lat":50.9025,"lng":-1.4042},{"city":"Hermosillo","lat":29.0989,"lng":-110.9542},{"city":"Cheongju","lat":36.6333,"lng":127.4833},{"city":"Shache","lat":38.4261,"lng":77.25},{"city":"Thanh Hóa","lat":19.8075,"lng":105.7764},{"city":"Macheng","lat":31.173,"lng":115.008},{"city":"Akure","lat":7.25,"lng":5.195},{"city":"Ilorin","lat":8.5,"lng":4.55},{"city":"Erbil","lat":36.1911,"lng":44.0094},{"city":"Kathmandu","lat":27.71,"lng":85.32},{"city":"Turin","lat":45.0792,"lng":7.6761},{"city":"Anqiu","lat":36.478,"lng":119.219},{"city":"Yuci","lat":37.6823,"lng":112.7281},{"city":"Dehui","lat":44.535,"lng":125.703},{"city":"Pietermaritzburg","lat":-29.6167,"lng":30.3833},{"city":"Durban","lat":-29.8833,"lng":31.05},{"city":"Saratov","lat":51.53,"lng":46.035},{"city":"Bhubaneshwar","lat":20.27,"lng":85.84},{"city":"Yushu","lat":44.826,"lng":126.55},{"city":"João Pessoa","lat":-7.12,"lng":-34.88},{"city":"Samarinda","lat":-0.5,"lng":117.1378},{"city":"Omaha","lat":41.2627,"lng":-96.0529},{"city":"Qingping","lat":34.539,"lng":113.391},{"city":"Rongjiawan","lat":29.15,"lng":113.1024},{"city":"Weichanglu","lat":37.1792,"lng":119.9333},{"city":"Sakai","lat":34.5733,"lng":135.4831},{"city":"Eskişehir","lat":39.7767,"lng":30.5206},{"city":"Renqiu","lat":38.686,"lng":116.084},{"city":"Wutong","lat":30.6333,"lng":120.5333},{"city":"Barcelona","lat":10.1403,"lng":-64.6833},{"city":"Wu’an","lat":36.697,"lng":114.204},{"city":"São Bernardo do Campo","lat":-23.6939,"lng":-46.565},{"city":"McAllen","lat":26.2252,"lng":-98.2467},{"city":"Narela","lat":28.85,"lng":77.1},{"city":"Bhayandar","lat":19.29,"lng":72.85},{"city":"Culiacán","lat":24.8069,"lng":-107.3939},{"city":"N’Djamena","lat":12.1053,"lng":15.0447},{"city":"Xiashi","lat":30.5333,"lng":120.6833},{"city":"Cúcuta","lat":7.8942,"lng":-72.5039},{"city":"Danyang","lat":32,"lng":119.586},{"city":"Dongyang","lat":29.2667,"lng":120.2167},{"city":"Kraków","lat":50.0614,"lng":19.9372},{"city":"Oran","lat":35.6969,"lng":-0.6331},{"city":"Pasig City","lat":14.5605,"lng":121.0765},{"city":"Thessaloníki","lat":40.6403,"lng":22.9356},{"city":"Blantyre","lat":-15.7861,"lng":35.0058},{"city":"Palermo","lat":2.8917,"lng":-75.4375},{"city":"Qamdo","lat":31.143,"lng":97.17},{"city":"Karīmnagar","lat":18.4386,"lng":79.1288},{"city":"Libreville","lat":0.3901,"lng":9.4544},{"city":"Hejian","lat":38.4466,"lng":116.0995},{"city":"Seyhan","lat":36.9831,"lng":35.3328},{"city":"Laiyang","lat":36.9758,"lng":120.7136},{"city":"Querétaro","lat":20.5875,"lng":-100.3928},{"city":"Wuxi","lat":26.58,"lng":111.841},{"city":"Yiyang","lat":26.4221,"lng":112.3999},{"city":"Niigata","lat":37.9161,"lng":139.0364},{"city":"Vinh","lat":18.6667,"lng":105.6667},{"city":"Puxi","lat":35.2125,"lng":114.735},{"city":"Hempstead","lat":40.6629,"lng":-73.6089},{"city":"Hamamatsu","lat":34.7108,"lng":137.7275},{"city":"Zijinglu","lat":34.7667,"lng":112.9667},{"city":"Kumila","lat":35.25,"lng":73.5},{"city":"Xingyi","lat":25.092,"lng":104.8955},{"city":"Xingcheng","lat":24.1347,"lng":115.73},{"city":"Birmingham","lat":33.5279,"lng":-86.7971},{"city":"Ailan Mubage","lat":43.908,"lng":81.2777},{"city":"Lubango","lat":-14.9167,"lng":13.5},{"city":"Frankfurt","lat":50.1106,"lng":8.6822},{"city":"Homs","lat":34.7319,"lng":36.7181},{"city":"Bilbao","lat":43.2569,"lng":-2.9236},{"city":"San Luis Potosí","lat":22.1511,"lng":-100.9761},{"city":"Bucheon","lat":37.5,"lng":126.7833},{"city":"Fuyang","lat":30.0553,"lng":119.95},{"city":"Korla","lat":41.7259,"lng":86.1746},{"city":"Khŭjand","lat":40.2833,"lng":69.6333},{"city":"Hamhŭng","lat":39.9167,"lng":127.5333},{"city":"Erzurum","lat":39.9086,"lng":41.2769},{"city":"Albuquerque","lat":35.1054,"lng":-106.6465},{"city":"Zagreb","lat":45.8131,"lng":15.9772},{"city":"Al ‘Ayn","lat":24.2075,"lng":55.7447},{"city":"Dodoma","lat":-6.1731,"lng":35.7419},{"city":"Pikine","lat":14.744,"lng":-17.4021},{"city":"Patiāla","lat":30.34,"lng":76.38},{"city":"Bahawalpur","lat":29.3956,"lng":71.6836},{"city":"Qingnian","lat":36.8494,"lng":115.7061},{"city":"Sanhe","lat":40.0167,"lng":117.0833},{"city":"Kaduna","lat":10.5167,"lng":7.4333},{"city":"Winnipeg","lat":49.8844,"lng":-97.1464},{"city":"Baardheere","lat":2.3447,"lng":42.2764},{"city":"Shīshgarh","lat":28.72,"lng":79.32},{"city":"Leping","lat":28.978,"lng":117.152},{"city":"Colombo","lat":6.9167,"lng":79.8333},{"city":"Nerima","lat":35.7356,"lng":139.6517},{"city":"Natal","lat":-5.795,"lng":-35.2089},{"city":"Lichuan","lat":30.291,"lng":108.9364},{"city":"Pendik","lat":40.8747,"lng":29.235},{"city":"Gdańsk","lat":54.3475,"lng":18.6453},{"city":"Licheng","lat":31.4306,"lng":119.4788},{"city":"Santo André","lat":-23.6533,"lng":-46.528},{"city":"Andijon","lat":40.7833,"lng":72.3333},{"city":"Gaalkacyo","lat":6.7697,"lng":47.4308},{"city":"Ōta-ku","lat":35.5614,"lng":139.7161},{"city":"Thiruvananthapuram","lat":8.5241,"lng":76.9366},{"city":"Nampula","lat":-15.1167,"lng":39.2667},{"city":"Zhuanghe","lat":39.681,"lng":122.967},{"city":"Kyaukse","lat":21.6131,"lng":96.1303},{"city":"Tulsa","lat":36.1283,"lng":-95.9042},{"city":"Chengguan","lat":35.4623,"lng":113.8054},{"city":"Bağcılar","lat":41.0344,"lng":28.8564},{"city":"Bouaké","lat":7.6833,"lng":-5.0331},{"city":"Cabinda","lat":-5.56,"lng":12.19},{"city":"Kumamoto","lat":32.8031,"lng":130.7078},{"city":"Kermān","lat":30.2625,"lng":57.0575},{"city":"Lingbao Chengguanzhen","lat":34.5176,"lng":110.8942},{"city":"Orūmīyeh","lat":37.5439,"lng":45.0647},{"city":"Quebec City","lat":46.8139,"lng":-71.2081},{"city":"Taihe","lat":30.871,"lng":105.388},{"city":"Yanggok","lat":37.6333,"lng":127.2167},{"city":"Zhongba","lat":31.771,"lng":104.755},{"city":"Osogbo","lat":7.7667,"lng":4.5667},{"city":"Sizhan","lat":38.9846,"lng":106.3828},{"city":"Suohe","lat":34.7833,"lng":113.35},{"city":"Xiangxiang","lat":27.7186,"lng":112.5502},{"city":"Hamilton","lat":43.2567,"lng":-79.8692},{"city":"Songyang","lat":34.4553,"lng":113.0253},{"city":"Cagayan de Oro","lat":8.48,"lng":124.65},{"city":"Qian’an","lat":39.999,"lng":118.701},{"city":"Shuangqiao","lat":35.067,"lng":112.602},{"city":"Chaohucun","lat":31.6244,"lng":117.8902},{"city":"Manama","lat":26.2233,"lng":50.5875},{"city":"Zouping","lat":36.863,"lng":117.743},{"city":"Charleston","lat":32.8168,"lng":-79.9687},{"city":"Uvira","lat":-3.4,"lng":29.15},{"city":"Durgāpur","lat":23.55,"lng":87.32},{"city":"An Najaf","lat":32.029,"lng":44.3396},{"city":"Fresno","lat":36.783,"lng":-119.7939},{"city":"Cencheng","lat":22.9167,"lng":111},{"city":"Umraniye","lat":41.0311,"lng":29.1081},{"city":"Sorocaba","lat":-23.5019,"lng":-47.4578},{"city":"Guli","lat":28.9,"lng":120.0333},{"city":"Sagamihara","lat":35.5667,"lng":139.3667},{"city":"Laixi","lat":36.8667,"lng":120.5333},{"city":"Okayama","lat":34.65,"lng":133.9167},{"city":"Concepción","lat":-36.8282,"lng":-73.0514},{"city":"San Pedro Sula","lat":15.5062,"lng":-88.0249},{"city":"Mississauga","lat":43.6,"lng":-79.65},{"city":"Changsha","lat":22.3773,"lng":112.6982},{"city":"Lviv","lat":49.8425,"lng":24.0322},{"city":"Shihezi","lat":44.3054,"lng":86.0804},{"city":"Valenzuela","lat":14.7,"lng":120.98},{"city":"Huambo","lat":-12.7767,"lng":15.7347},{"city":"Xichang","lat":27.8944,"lng":102.2644},{"city":"Guangshui","lat":31.617,"lng":113.826},{"city":"Zaporizhzhia","lat":47.85,"lng":35.1175},{"city":"Bhiwandi","lat":19.2967,"lng":73.0631},{"city":"Gaoyou","lat":32.845,"lng":119.508},{"city":"Chengxiang","lat":31.564,"lng":121.174},{"city":"Bhīlwāra","lat":25.35,"lng":74.63},{"city":"Oslo","lat":59.9133,"lng":10.7389},{"city":"George Town","lat":5.4136,"lng":100.3294},{"city":"Bristol","lat":51.4536,"lng":-2.5975},{"city":"Zunhua","lat":40.189,"lng":117.966},{"city":"Sahāranpur","lat":29.9639,"lng":77.5458},{"city":"Yenimahalle","lat":39.9719,"lng":32.8119},{"city":"Warangal","lat":17.9689,"lng":79.5941},{"city":"Nampo","lat":38.7356,"lng":125.4089},{"city":"Dasmariñas","lat":14.33,"lng":120.94},{"city":"Shiliguri","lat":26.71,"lng":88.43},{"city":"Boosaaso","lat":11.28,"lng":49.18},{"city":"Parachinar","lat":33.9,"lng":70.1},{"city":"Latakia","lat":35.54,"lng":35.78},{"city":"Tongchuan","lat":34.897,"lng":108.945},{"city":"Xindi","lat":29.827,"lng":113.476},{"city":"Edogawa","lat":35.7,"lng":139.8833},{"city":"General Santos","lat":6.12,"lng":125.17},{"city":"Ḩamāh","lat":35.1503,"lng":36.73},{"city":"Rochester","lat":43.168,"lng":-77.6162},{"city":"Bauchi","lat":10.5,"lng":10},{"city":"Salem","lat":11.65,"lng":78.15},{"city":"Sinnūris","lat":29.4072,"lng":30.8667},{"city":"Cocody","lat":5.3351,"lng":-4.0039},{"city":"Lokoja","lat":7.8019,"lng":6.7442},{"city":"Guadalupe","lat":25.6775,"lng":-100.2597},{"city":"Selçuklu","lat":37.8814,"lng":32.4922},{"city":"Karbalā’","lat":32.6167,"lng":44.0333},{"city":"Borvāyeh-ye Al Bū ‘Azīz","lat":31.6283,"lng":48.6147},{"city":"City of Parañaque","lat":14.5008,"lng":120.9915},{"city":"Taihecun","lat":45.771,"lng":131.003},{"city":"Mamak","lat":39.9422,"lng":32.9231},{"city":"Jianshe","lat":34.2137,"lng":113.7629},{"city":"Zaragoza","lat":41.65,"lng":-0.8833},{"city":"Shishi","lat":24.7167,"lng":118.7},{"city":"Shizuoka","lat":34.9756,"lng":138.3828},{"city":"Agege","lat":6.6219,"lng":3.3258},{"city":"Mar del Plata","lat":-38,"lng":-57.55},{"city":"Adachi","lat":35.7833,"lng":139.8},{"city":"Pontianak","lat":-0.0206,"lng":109.3414},{"city":"Rasht","lat":37.2744,"lng":49.5889},{"city":"Xigazê","lat":29.25,"lng":88.8833},{"city":"Cotonou","lat":6.3667,"lng":2.4333},{"city":"Tasikmalaya","lat":-7.3161,"lng":108.1975},{"city":"Kochi","lat":9.9312,"lng":76.2673},{"city":"Soledad","lat":10.9167,"lng":-74.75},{"city":"Shanhu","lat":29.6,"lng":120.8167},{"city":"Gothenburg","lat":57.7075,"lng":11.9675},{"city":"Acapulco de Juárez","lat":16.8636,"lng":-99.8825},{"city":"Gorakhpur","lat":26.7637,"lng":83.4039},{"city":"Bahār","lat":34.9078,"lng":48.4394},{"city":"Wrocław","lat":51.11,"lng":17.0325},{"city":"Murcia","lat":37.9861,"lng":-1.1303},{"city":"Pinghu","lat":30.7,"lng":121.0167},{"city":"Guankou","lat":30.988,"lng":103.647},{"city":"Łódź","lat":51.7769,"lng":19.4547},{"city":"Yatou","lat":37.1653,"lng":122.4867},{"city":"Denpasar","lat":-8.6717,"lng":115.2339},{"city":"Guntūr","lat":16.3008,"lng":80.4428},{"city":"Tolyatti","lat":53.5089,"lng":49.4222},{"city":"Dayton","lat":39.7805,"lng":-84.2003},{"city":"Ch’ŏngjin","lat":41.7833,"lng":129.7667},{"city":"Zhaodong","lat":46.051,"lng":125.962},{"city":"Puyang Chengguanzhen","lat":35.7004,"lng":114.98},{"city":"Bulawayo","lat":-20.17,"lng":28.58},{"city":"Aracaju","lat":-10.9111,"lng":-37.0717},{"city":"Bacoor","lat":14.4624,"lng":120.9645},{"city":"Rotterdam","lat":51.92,"lng":4.48},{"city":"Tlaquepaque","lat":20.6167,"lng":-103.3167},{"city":"Villavicencio","lat":4.15,"lng":-73.6333},{"city":"Campo Grande","lat":-20.4686,"lng":-54.6222},{"city":"Jingcheng","lat":32.009,"lng":120.263},{"city":"Makhachkala","lat":42.9825,"lng":47.505},{"city":"Banjarmasin","lat":-3.32,"lng":114.5925},{"city":"Kitwe","lat":-12.8167,"lng":28.2},{"city":"Catia La Mar","lat":10.6,"lng":-67.0333},{"city":"Nneyi-Umuleri","lat":6.3333,"lng":6.8333},{"city":"Al Hufūf","lat":25.3608,"lng":49.5997},{"city":"Dali","lat":25.6811,"lng":100.3003},{"city":"Jalingo","lat":8.9,"lng":11.3667},{"city":"Sargodha","lat":32.0836,"lng":72.6711},{"city":"Karaikandi","lat":24.8309,"lng":92.6143},{"city":"Ch’ŏnan","lat":36.81,"lng":127.1475},{"city":"Brampton","lat":43.6833,"lng":-79.7667},{"city":"Cape Coral","lat":26.6443,"lng":-81.9957},{"city":"Haldwāni","lat":29.22,"lng":79.52},{"city":"Abomey-Calavi","lat":6.4486,"lng":2.3556},{"city":"Yıldırım","lat":40.11,"lng":29.0821},{"city":"Dhūlia","lat":20.8997,"lng":74.7697},{"city":"Zhongshu","lat":27.7919,"lng":106.4013},{"city":"Durango","lat":24.025,"lng":-104.6675},{"city":"Songzi","lat":30.174,"lng":111.757},{"city":"Tondo","lat":14.617,"lng":120.967},{"city":"Dayrūţ","lat":27.5564,"lng":30.8106},{"city":"Tlalnepantla","lat":19.5367,"lng":-99.1947},{"city":"Xiping","lat":25.6005,"lng":103.8166},{"city":"Osasco","lat":-23.5328,"lng":-46.7919},{"city":"Huế","lat":16.4619,"lng":107.5955},{"city":"San Jose del Monte","lat":14.8139,"lng":121.0453},{"city":"Denizli","lat":37.7833,"lng":29.0964},{"city":"Maturín","lat":9.75,"lng":-63.183},{"city":"Honchō","lat":35.6946,"lng":139.9826},{"city":"Wuxue","lat":29.844,"lng":115.561},{"city":"Bhāvnagar","lat":21.76,"lng":72.15},{"city":"Jinghong","lat":22.009,"lng":100.797},{"city":"Wugang","lat":26.7266,"lng":110.6319},{"city":"Sha Tin","lat":22.3802,"lng":114.1898},{"city":"Provo","lat":40.2457,"lng":-111.6457},{"city":"Chisinau","lat":47.0228,"lng":28.8353},{"city":"Petaling Jaya","lat":3.0833,"lng":101.65},{"city":"Colorado Springs","lat":38.8674,"lng":-104.7605},{"city":"Tallinn","lat":59.4372,"lng":24.7453},{"city":"Noida","lat":28.57,"lng":77.32},{"city":"Las Palmas","lat":28.1258,"lng":-15.4353},{"city":"Mission Viejo","lat":33.6096,"lng":-117.6551},{"city":"Bhāngar","lat":22.58,"lng":88.42},{"city":"Allentown","lat":40.5961,"lng":-75.4756},{"city":"Benghazi","lat":32.1167,"lng":20.0667},{"city":"Chuxiong","lat":25.033,"lng":101.5459},{"city":"Düsseldorf","lat":51.2256,"lng":6.7767},{"city":"Palermo","lat":38.1157,"lng":13.3613},{"city":"Baton Rouge","lat":30.442,"lng":-91.1311},{"city":"Makati City","lat":14.5567,"lng":121.0214},{"city":"Ndola","lat":-12.9689,"lng":28.6325},{"city":"Ţūkh","lat":30.3549,"lng":31.2011},{"city":"Glasgow","lat":55.8611,"lng":-4.25},{"city":"Bazal’tove","lat":50.6765,"lng":26.16},{"city":"Al Qaţīf","lat":26.5196,"lng":50.0115},{"city":"Bhilai","lat":21.21,"lng":81.38},{"city":"Mangalore","lat":12.8717,"lng":74.8425},{"city":"Kaihua","lat":23.387,"lng":104.233},{"city":"Irkutsk","lat":52.2892,"lng":104.28},{"city":"Ogden","lat":41.2279,"lng":-111.9682},{"city":"Meilan","lat":19.999,"lng":110.403},{"city":"Ansan","lat":37.3167,"lng":126.8333},{"city":"Barnaul","lat":53.3486,"lng":83.7764},{"city":"Bazhou","lat":39.1333,"lng":116.3833},{"city":"Turpan","lat":42.9512,"lng":89.1895},{"city":"Jos","lat":9.9167,"lng":8.8903},{"city":"Langzhong","lat":31.558,"lng":106.005},{"city":"Qufu","lat":35.5819,"lng":116.9862},{"city":"Al Manşūrah","lat":31.05,"lng":31.3833},{"city":"Tengyue","lat":25.0167,"lng":98.4833},{"city":"Leipzig","lat":51.34,"lng":12.375},{"city":"Ḩalwān","lat":29.8493,"lng":31.3327},{"city":"Tân An","lat":10.905,"lng":106.6994},{"city":"Port-Bouët","lat":5.2568,"lng":-3.963},{"city":"Izhevsk","lat":56.8333,"lng":53.1833},{"city":"Knoxville","lat":35.9692,"lng":-83.9496},{"city":"Jurong","lat":31.946,"lng":119.164},{"city":"Arusha","lat":-3.3667,"lng":36.6833},{"city":"Bihtā","lat":25.5619,"lng":84.87},{"city":"Yuhuan","lat":28.1277,"lng":121.2288},{"city":"Khabarovsk","lat":48.4833,"lng":135.0833},{"city":"Etimesgut","lat":39.9458,"lng":32.6694},{"city":"Changping","lat":40.2248,"lng":116.1944},{"city":"Chimalhuacán","lat":19.4131,"lng":-98.9839},{"city":"Kandahār","lat":31.62,"lng":65.7158},{"city":"Oujda-Angad","lat":34.6867,"lng":-1.9114},{"city":"Ruiming","lat":25.886,"lng":116.027},{"city":"Serang","lat":-6.12,"lng":106.1503},{"city":"Ulyanovsk","lat":54.3167,"lng":48.3667},{"city":"Shenzhou","lat":38.002,"lng":115.56},{"city":"Jambi","lat":-1.59,"lng":103.61},{"city":"Hasanpur","lat":28.72,"lng":78.28},{"city":"Grand Rapids","lat":42.9619,"lng":-85.6562},{"city":"Yukarıkaraman","lat":36.9167,"lng":30.6833},{"city":"Kuantan","lat":3.83,"lng":103.32},{"city":"Gold Coast","lat":-28.0167,"lng":153.4},{"city":"Kawaguchi","lat":35.8077,"lng":139.7241},{"city":"Dashiqiao","lat":40.6167,"lng":122.5167},{"city":"Las Piñas City","lat":14.45,"lng":120.98},{"city":"Cuttack","lat":20.5236,"lng":85.7881},{"city":"San Miguel de Tucumán","lat":-26.8167,"lng":-65.2167},{"city":"Ar Rayyān","lat":25.25,"lng":51.4},{"city":"Riga","lat":56.9475,"lng":24.1069},{"city":"Columbia","lat":34.0378,"lng":-80.9036},{"city":"Salīmpur","lat":26.3,"lng":83.9167},{"city":"Malanje","lat":-9.5333,"lng":16.35},{"city":"Kryvyi Rih","lat":47.91,"lng":33.39},{"city":"Djibouti","lat":11.5944,"lng":43.1481},{"city":"Zhuozhou","lat":39.485,"lng":115.974},{"city":"Tianchang","lat":32.6811,"lng":119.0137},{"city":"Albany","lat":42.6664,"lng":-73.7987},{"city":"Bacolod","lat":10.6765,"lng":122.9509},{"city":"Garoua","lat":9.3,"lng":13.4},{"city":"Bamenda","lat":5.9614,"lng":10.1517},{"city":"Bafoussam","lat":5.4667,"lng":10.4167},{"city":"Haifa","lat":32.8192,"lng":34.9992},{"city":"Raurkela","lat":22.2492,"lng":84.8828},{"city":"Tunis","lat":36.8064,"lng":10.1817},{"city":"Tumkūr","lat":13.34,"lng":77.1},{"city":"Balikpapan","lat":-1.2768,"lng":116.8277},{"city":"Somolu","lat":6.5408,"lng":3.3872},{"city":"Şanlıurfa","lat":37.1583,"lng":38.7917},{"city":"Dortmund","lat":51.5139,"lng":7.4653},{"city":"Al Mukallā","lat":14.5333,"lng":49.1333},{"city":"Xinji","lat":37.943,"lng":115.218},{"city":"Melikgazi","lat":38.7167,"lng":35.5},{"city":"Kagoshima","lat":31.5969,"lng":130.5572},{"city":"Wenchang","lat":31.0358,"lng":116.9367},{"city":"Sihui","lat":23.3265,"lng":112.7338},{"city":"Irapuato","lat":20.6667,"lng":-101.35},{"city":"Dublin","lat":53.3497,"lng":-6.2603},{"city":"Al Maḩallah al Kubrá","lat":30.9667,"lng":31.1667},{"city":"Sialkot City","lat":32.4925,"lng":74.5311},{"city":"Vladivostok","lat":43.115,"lng":131.8853},{"city":"Luocheng","lat":30.99,"lng":104.25},{"city":"Pereira","lat":4.8143,"lng":-75.6946},{"city":"Gaza","lat":31.5069,"lng":34.456},{"city":"Reynosa","lat":26.0922,"lng":-98.2778},{"city":"Zāhedān","lat":29.5025,"lng":60.8558},{"city":"Essen","lat":51.4508,"lng":7.0131},{"city":"Cimahi","lat":-6.8712,"lng":107.5548},{"city":"Wenlan","lat":23.3961,"lng":103.3649},{"city":"Itabashi","lat":35.7667,"lng":139.6833},{"city":"Shah Alam","lat":3.0667,"lng":101.55},{"city":"Suginami-ku","lat":35.6994,"lng":139.6364},{"city":"Jaboatão dos Guararapes","lat":-8.1128,"lng":-35.015},{"city":"Vilnius","lat":54.6872,"lng":25.28},{"city":"Kingston","lat":17.9714,"lng":-76.7931},{"city":"Al Mafraq","lat":32.3399,"lng":36.2052},{"city":"Aţ Ţā’if","lat":21.2667,"lng":40.4167},{"city":"Port Sudan","lat":19.6158,"lng":37.2164},{"city":"Nha Trang","lat":12.245,"lng":109.1917},{"city":"Tuxtla","lat":16.7528,"lng":-93.1167},{"city":"Bakersfield","lat":35.3529,"lng":-119.0359},{"city":"Dehra Dūn","lat":30.345,"lng":78.029},{"city":"Bremen","lat":53.0758,"lng":8.8072},{"city":"Fu’an","lat":27.1,"lng":119.6333},{"city":"Mymensingh","lat":24.7504,"lng":90.38},{"city":"Hachiōji","lat":35.6664,"lng":139.316},{"city":"Iloilo","lat":10.72,"lng":122.57},{"city":"Puente Alto","lat":-33.6167,"lng":-70.5667},{"city":"Botou","lat":38.0833,"lng":116.5833},{"city":"Rabat","lat":34.0209,"lng":-6.8416},{"city":"Sincan","lat":39.9594,"lng":32.5767},{"city":"Kabinda","lat":-6.13,"lng":24.48},{"city":"Kottayam","lat":9.5916,"lng":76.5222},{"city":"Kahramanmaraş","lat":37.5833,"lng":36.9333},{"city":"Shibīn al Qanāţir","lat":30.3127,"lng":31.3202},{"city":"Tonalá","lat":20.6167,"lng":-103.2333},{"city":"Abū Ḩummuş","lat":31.0931,"lng":30.3142},{"city":"Irbid","lat":32.55,"lng":35.85},{"city":"Jin’e","lat":29.3394,"lng":105.2875},{"city":"Macau","lat":22.2006,"lng":113.5461},{"city":"Xinxing","lat":39.8667,"lng":124.15},{"city":"Surrey","lat":49.19,"lng":-122.8489},{"city":"Yaroslavl","lat":57.6167,"lng":39.85},{"city":"Qionghu","lat":28.945,"lng":112.598},{"city":"Dresden","lat":51.05,"lng":13.74},{"city":"Xinmin","lat":41.997,"lng":122.823},{"city":"New Haven","lat":41.3113,"lng":-72.9246},{"city":"Antwerp","lat":51.2178,"lng":4.4003},{"city":"Kuiju","lat":36.8667,"lng":119.4},{"city":"Āsansol","lat":23.68,"lng":86.99},{"city":"Bokaro Steel City","lat":23.67,"lng":86.15},{"city":"Jieshou","lat":33.257,"lng":115.3746},{"city":"Bello","lat":6.3333,"lng":-75.5667},{"city":"Kolhāpur","lat":16.6917,"lng":74.2333},{"city":"Wencheng","lat":19.617,"lng":110.7551},{"city":"Miluo Chengguanzhen","lat":28.761,"lng":113.16},{"city":"Lanxi","lat":29.208,"lng":119.458},{"city":"Zhenzhou","lat":32.2723,"lng":119.1848},{"city":"Des Moines","lat":41.5725,"lng":-93.6105},{"city":"Nava Raipur","lat":21.161,"lng":81.787},{"city":"Gaizhou","lat":40.4,"lng":122.35},{"city":"Leling","lat":37.73,"lng":117.232},{"city":"Genoa","lat":44.4072,"lng":8.934},{"city":"Ensenada","lat":31.8578,"lng":-116.6058},{"city":"Herāt","lat":34.3419,"lng":62.2031},{"city":"Uyo","lat":5.0333,"lng":7.9275},{"city":"Hamadān","lat":34.8064,"lng":48.5161},{"city":"Chiclayo","lat":-6.763,"lng":-79.8366},{"city":"Surakarta","lat":-7.5667,"lng":110.8167},{"city":"Ajmer","lat":26.4499,"lng":74.6399},{"city":"Braunschweig","lat":52.2667,"lng":10.5167},{"city":"Nānded","lat":19.15,"lng":77.3},{"city":"Wuhai","lat":39.655,"lng":106.794},{"city":"Palma","lat":39.5667,"lng":2.65},{"city":"Rustenburg","lat":-25.6667,"lng":27.2428},{"city":"Amrāvati","lat":20.9258,"lng":77.7647},{"city":"Lisbon","lat":38.7122,"lng":-9.134},{"city":"Yanji","lat":42.9,"lng":129.5},{"city":"The Hague","lat":52.08,"lng":4.31},{"city":"Hannover","lat":52.3667,"lng":9.7167},{"city":"Sevastopol","lat":44.605,"lng":33.5225},{"city":"Palm Bay","lat":27.9631,"lng":-80.6593},{"city":"Manchester","lat":53.479,"lng":-2.2452},{"city":"Nellore","lat":14.4431,"lng":79.9861},{"city":"Poznań","lat":52.4083,"lng":16.9336},{"city":"Ibagué","lat":4.4333,"lng":-75.2333},{"city":"Wancheng","lat":18.8,"lng":110.4},{"city":"Tomsk","lat":56.5,"lng":84.9667},{"city":"Sungai Petani","lat":5.6497,"lng":100.4793},{"city":"Xinshi","lat":31.1333,"lng":113.1167},{"city":"Kemerovo","lat":55.3667,"lng":86.0667},{"city":"Naberezhnyye Chelny","lat":55.6833,"lng":52.3167},{"city":"Valledupar","lat":10.4833,"lng":-73.25},{"city":"Muntinlupa City","lat":14.38,"lng":121.05},{"city":"K’ebrī Beyah","lat":9.0833,"lng":43.0833},{"city":"Luofeng","lat":37.359,"lng":120.396},{"city":"Ghulja","lat":43.9,"lng":81.35},{"city":"Ixtapaluca","lat":19.3186,"lng":-98.8822},{"city":"Fuding","lat":27.2,"lng":120.2},{"city":"Heroica Matamoros","lat":25.8797,"lng":-97.5042},{"city":"Mbeya","lat":-8.9,"lng":33.45},{"city":"An Nāşirīyah","lat":31.0439,"lng":46.2575},{"city":"Al Ḩillah","lat":32.4833,"lng":44.4333},{"city":"Lingyuan","lat":41.25,"lng":119.4},{"city":"Juiz de Fora","lat":-21.7642,"lng":-43.3503},{"city":"Guixi","lat":28.2925,"lng":117.2454},{"city":"City of Calamba","lat":14.22,"lng":121.17},{"city":"São José dos Campos","lat":-23.1789,"lng":-45.8869},{"city":"Akron","lat":41.0798,"lng":-81.5219},{"city":"El Geneina","lat":13.45,"lng":22.44},{"city":"Contagem","lat":-19.9319,"lng":-44.0539},{"city":"Santa Cruz","lat":28.4667,"lng":-16.25},{"city":"Agadir","lat":30.4214,"lng":-9.5831},{"city":"Orenburg","lat":51.7833,"lng":55.1},{"city":"Nilüfer","lat":40.2833,"lng":28.95},{"city":"Leeds","lat":53.7975,"lng":-1.5436},{"city":"Kassala","lat":15.45,"lng":36.4},{"city":"Aksu","lat":41.185,"lng":80.2904},{"city":"Salta","lat":-24.7833,"lng":-65.4167},{"city":"Dispur","lat":26.1397,"lng":91.7925},{"city":"Gulbarga","lat":17.329,"lng":76.825},{"city":"Nansana","lat":0.3639,"lng":32.5286},{"city":"Kimhae","lat":35.2342,"lng":128.8811},{"city":"Novokuznetsk","lat":53.7667,"lng":87.1333},{"city":"Beira","lat":-19.8333,"lng":34.85},{"city":"Balashikha","lat":55.8167,"lng":37.9667},{"city":"Yazd","lat":31.8822,"lng":54.3397},{"city":"Ardabīl","lat":38.2517,"lng":48.2975},{"city":"Touba","lat":14.8667,"lng":-15.8833},{"city":"Bīkaner","lat":28.0167,"lng":73.3119},{"city":"Gaobeidian","lat":39.327,"lng":115.874},{"city":"Mixco","lat":14.6331,"lng":-90.6064},{"city":"Himeji","lat":34.8167,"lng":134.6833},{"city":"Bandar ‘Abbās","lat":27.1961,"lng":56.2878},{"city":"Nuremberg","lat":49.4539,"lng":11.0775},{"city":"Concord","lat":37.9722,"lng":-122.0016},{"city":"Van","lat":38.4942,"lng":43.38},{"city":"Port Said","lat":31.2625,"lng":32.3061},{"city":"Kōtō-ku","lat":35.6667,"lng":139.8167},{"city":"Ciudad Apodaca","lat":25.7817,"lng":-100.1886},{"city":"Kitchener","lat":43.4186,"lng":-80.4728},{"city":"Agartala","lat":23.8314,"lng":91.2869},{"city":"Soacha","lat":4.5872,"lng":-74.2214},{"city":"Buca","lat":38.35,"lng":27.1667},{"city":"Maipú","lat":-33.5167,"lng":-70.7667},{"city":"Arāk","lat":34.0914,"lng":49.6933},{"city":"Lyon","lat":45.76,"lng":4.84},{"city":"Tultitlán de Mariano Escobedo","lat":19.645,"lng":-99.1694},{"city":"Ryazan","lat":54.63,"lng":39.7425},{"city":"Meknès","lat":33.895,"lng":-5.5547},{"city":"Luanzhou","lat":39.741,"lng":118.704},{"city":"Al Fayyūm","lat":29.3,"lng":30.8333},{"city":"Utsunomiya","lat":36.555,"lng":139.8825},{"city":"Sheffield","lat":53.3808,"lng":-1.4703},{"city":"Chānda","lat":19.95,"lng":79.297},{"city":"Suez","lat":29.9667,"lng":32.5333},{"city":"Heshan","lat":22.7667,"lng":112.95},{"city":"Loni","lat":28.75,"lng":77.28},{"city":"Jiaji","lat":19.2431,"lng":110.4642},{"city":"Qaraghandy","lat":49.8028,"lng":73.1056},{"city":"Santa Marta","lat":11.2419,"lng":-74.2053},{"city":"Ujjain","lat":23.17,"lng":75.79},{"city":"Abū Ţisht","lat":26.1204,"lng":32.0954},{"city":"Samarkand","lat":39.6547,"lng":66.9758},{"city":"Liverpool","lat":53.4072,"lng":-2.9917},{"city":"Macapá","lat":0.033,"lng":-51.05},{"city":"Benguela","lat":-12.55,"lng":13.4167},{"city":"Cuito","lat":-12.3833,"lng":16.9333},{"city":"Al Fashn","lat":28.8231,"lng":30.899},{"city":"Toulouse","lat":43.6045,"lng":1.444},{"city":"Al ‘Amārah","lat":31.8333,"lng":47.15},{"city":"Carrefour","lat":18.5333,"lng":-72.4},{"city":"Campos","lat":-21.7523,"lng":-41.3304},{"city":"Cadaado","lat":6.1393,"lng":46.6241},{"city":"Meihekou","lat":42.5407,"lng":125.7107},{"city":"Kenitra","lat":34.25,"lng":-6.5833},{"city":"Newcastle","lat":-27.7464,"lng":29.9328},{"city":"Mesa","lat":33.4015,"lng":-111.7178},{"city":"Jhānsi","lat":25.4486,"lng":78.5696},{"city":"Matsuyama","lat":33.8333,"lng":132.7667},{"city":"Ulhāsnagar","lat":19.22,"lng":73.15},{"city":"Ribeirão Prêto","lat":-21.1776,"lng":-47.8101},{"city":"Pohang","lat":36.0322,"lng":129.365},{"city":"Duisburg","lat":51.4347,"lng":6.7625},{"city":"Jammu","lat":32.73,"lng":74.87},{"city":"Ile-Ife","lat":7.4833,"lng":4.5592},{"city":"Wichita","lat":37.6895,"lng":-97.3443},{"city":"Mazatlán","lat":23.2167,"lng":-106.4167},{"city":"Uberlândia","lat":-18.9189,"lng":-48.2769},{"city":"Homyel’","lat":52.4453,"lng":30.9842},{"city":"Nenjiang","lat":49.11,"lng":125.13},{"city":"Tuticorin","lat":8.8056,"lng":78.145},{"city":"Harrisburg","lat":40.2752,"lng":-76.8843},{"city":"Taozhou","lat":30.8956,"lng":119.411},{"city":"Anlu","lat":31.2667,"lng":113.6667},{"city":"Purnea","lat":25.778,"lng":87.476},{"city":"Staten Island","lat":40.5834,"lng":-74.1496},{"city":"Xiangyang","lat":34.2995,"lng":108.4905},{"city":"Jiangshan","lat":28.7361,"lng":118.625},{"city":"Duyun","lat":26.2594,"lng":107.5186},{"city":"Kumul","lat":42.8193,"lng":93.5151},{"city":"Toledo","lat":41.6638,"lng":-83.5827},{"city":"Xingcheng","lat":40.6167,"lng":120.7333},{"city":"Yueqing","lat":28.12,"lng":120.96},{"city":"Belgaum","lat":15.85,"lng":74.5},{"city":"Edinburgh","lat":55.95,"lng":-3.1833},{"city":"Yucheng","lat":36.934,"lng":116.638},{"city":"Brookhaven","lat":40.832,"lng":-72.9517},{"city":"Worcester","lat":42.2705,"lng":-71.8079},{"city":"Karamay","lat":45.5799,"lng":84.8892},{"city":"Zhangshu","lat":28.0546,"lng":115.5462},{"city":"Mingguang","lat":32.7833,"lng":117.9667},{"city":"Vellore","lat":12.9165,"lng":79.1325},{"city":"Huanghua","lat":38.372,"lng":117.33},{"city":"Encheng","lat":22.1833,"lng":112.3},{"city":"Lianran","lat":24.919,"lng":102.478},{"city":"Mālegaon","lat":20.55,"lng":74.55},{"city":"Hailun","lat":47.4667,"lng":126.9667},{"city":"Jāmnagar","lat":22.47,"lng":70.07},{"city":"Chengjiao","lat":35.3984,"lng":114.0649},{"city":"Bārdoli","lat":21.12,"lng":73.12},{"city":"Worthing","lat":50.8147,"lng":-0.3714},{"city":"Gaya","lat":24.75,"lng":85.01},{"city":"Port St. Lucie","lat":27.2796,"lng":-80.3884},{"city":"Xiulin","lat":29.7209,"lng":112.4254},{"city":"Yicheng","lat":31.721,"lng":112.257},{"city":"Fengcheng","lat":40.45,"lng":124.0667},{"city":"Xiaoyi","lat":36.0833,"lng":111.5167},{"city":"Jiangshandicun","lat":28.7412,"lng":118.6225},{"city":"Little Rock","lat":34.7256,"lng":-92.3577},{"city":"Qingzhen","lat":26.5704,"lng":106.4687},{"city":"Ambattūr","lat":13.1143,"lng":80.1548},{"city":"Longjiang","lat":27.5819,"lng":120.5489},{"city":"Leicester","lat":52.6361,"lng":-1.1331},{"city":"Rushan","lat":36.87,"lng":121.505},{"city":"Shangzhi","lat":45.207,"lng":127.965},{"city":"Kuqa","lat":41.7156,"lng":82.9322},{"city":"Kaiyuan","lat":42.546,"lng":124.038},{"city":"Jalgaon","lat":21.004,"lng":75.568},{"city":"Madison","lat":43.0822,"lng":-89.393},{"city":"Chhatarpur","lat":24.55,"lng":79.3527},{"city":"Spokane","lat":47.6671,"lng":-117.433},{"city":"Long Beach","lat":33.7977,"lng":-118.167},{"city":"Kurnool","lat":15.83,"lng":78.05},{"city":"Denton","lat":33.2175,"lng":-97.1418},{"city":"Reno","lat":39.5497,"lng":-119.8483},{"city":"Gaoping","lat":35.798,"lng":112.924},{"city":"Udaipur","lat":24.58,"lng":73.68},{"city":"Wāpi","lat":20.372,"lng":72.917},{"city":"Boise","lat":43.6005,"lng":-116.2308},{"city":"Tanbei","lat":35.088,"lng":112.951},{"city":"Bonita Springs","lat":26.3558,"lng":-81.7859},{"city":"Kissimmee","lat":28.3041,"lng":-81.4169},{"city":"Baisha","lat":29.4896,"lng":119.337},{"city":"Mathura","lat":27.4925,"lng":77.6736},{"city":"Meicheng","lat":30.631,"lng":116.581},{"city":"Beipiao","lat":41.801,"lng":120.771},{"city":"Jiannan","lat":31.3333,"lng":104.2},{"city":"Halifax","lat":44.6475,"lng":-63.5906},{"city":"Augusta","lat":33.3645,"lng":-82.0708},{"city":"Springfield","lat":42.1155,"lng":-72.5395},{"city":"Laval","lat":45.5833,"lng":-73.75},{"city":"Oakland","lat":37.7904,"lng":-122.2166},{"city":"Jinchang","lat":38.5214,"lng":102.188},{"city":"Nehe","lat":48.4833,"lng":124.8833},{"city":"Sāngli","lat":16.853,"lng":74.583},{"city":"Zhuangyuan","lat":37.3056,"lng":120.829},{"city":"Davangere","lat":14.4666,"lng":75.9242},{"city":"Jian’ou","lat":27.0333,"lng":118.3167},{"city":"Winston-Salem","lat":36.1029,"lng":-80.261},{"city":"Chang’an","lat":29.4768,"lng":113.4504},{"city":"Shahe","lat":36.8549,"lng":114.5033},{"city":"Calicut","lat":11.2588,"lng":75.7804},{"city":"Yan’an Beilu","lat":44.0144,"lng":87.2674},{"city":"Mothīhāri","lat":26.65,"lng":84.9167},{"city":"Akola","lat":20.7,"lng":77},{"city":"London","lat":42.9836,"lng":-81.2497},{"city":"Beining","lat":41.6,"lng":121.8},{"city":"Laohekou","lat":32.359,"lng":111.684},{"city":"Xicheng","lat":23.3667,"lng":103.15},{"city":"Xingren","lat":25.435,"lng":105.1862},{"city":"Stockton","lat":37.9765,"lng":-121.3109},{"city":"Nagqu","lat":31.476,"lng":92.051},{"city":"Bettiah","lat":26.8014,"lng":84.5028},{"city":"Fujin","lat":47.25,"lng":132.0333},{"city":"Yuanping","lat":38.731,"lng":112.711},{"city":"Linghai","lat":41.1667,"lng":121.35},{"city":"Shorāpur","lat":16.52,"lng":76.76},{"city":"Durham","lat":35.9792,"lng":-78.9022},{"city":"Tinnevelly","lat":8.7136,"lng":77.7567},{"city":"Chattanooga","lat":35.066,"lng":-85.2481},{"city":"Bellary","lat":15.1,"lng":76.9167},{"city":"Bhāgalpur","lat":25.25,"lng":87},{"city":"Danjiangkou","lat":32.5401,"lng":111.5131},{"city":"Zhangjiakou Shi Xuanhua Qu","lat":40.5944,"lng":115.0243},{"city":"Manampizha","lat":9.2972,"lng":76.65},{"city":"Greenville","lat":34.8354,"lng":-82.3646},{"city":"Zhijiang","lat":30.426,"lng":111.761},{"city":"Lancaster","lat":40.042,"lng":-76.3012},{"city":"Fenyang","lat":37.2616,"lng":111.7699},{"city":"Syracuse","lat":43.0407,"lng":-76.1437},{"city":"Fangting","lat":31.127,"lng":104.167},{"city":"Shulan","lat":44.4059,"lng":126.9655},{"city":"Wanyuan","lat":31.9833,"lng":107.9667},{"city":"Jiexiu","lat":37.027,"lng":111.917},{"city":"Delhi Cantonment","lat":28.6,"lng":77.1333},{"city":"Fayetteville","lat":36.0714,"lng":-94.1661},{"city":"Pencheng","lat":29.676,"lng":115.681},{"city":"Salt Lake City","lat":22.61,"lng":88.4},{"city":"Etāwa","lat":24.18,"lng":78.2},{"city":"Sonīpat","lat":28.99,"lng":77.022},{"city":"Pensacola","lat":30.4413,"lng":-87.1911},{"city":"Pingquan","lat":41.0184,"lng":118.702},{"city":"Dangyang","lat":30.821,"lng":111.789},{"city":"Quilon","lat":8.8932,"lng":76.6141},{"city":"Mulangodi","lat":9,"lng":76.6167},{"city":"Munro Turuttu","lat":9,"lng":76.6167},{"city":"Nangong","lat":37.359,"lng":115.409},{"city":"Yongji","lat":34.867,"lng":110.448},{"city":"Arlington","lat":32.6998,"lng":-97.125},{"city":"Karūr","lat":10.9601,"lng":78.0766},{"city":"Jālna","lat":19.841,"lng":75.8864},{"city":"Zhugang","lat":28.1358,"lng":121.2264},{"city":"Hejin","lat":35.596,"lng":110.712},{"city":"Dunhua","lat":43.3667,"lng":128.2333},{"city":"Huili Chengguanzhen","lat":26.6333,"lng":102.25},{"city":"Aurora","lat":39.7083,"lng":-104.7237},{"city":"Bairia","lat":25.7583,"lng":84.1489},{"city":"Bhātpāra","lat":22.87,"lng":88.41},{"city":"Sirūr","lat":18.83,"lng":74.38},{"city":"Lingxi","lat":27.5036,"lng":120.3975},{"city":"Kākināda","lat":16.9661,"lng":82.255},{"city":"Lecheng","lat":25.1333,"lng":113.3333},{"city":"Hancheng","lat":35.4667,"lng":110.4333},{"city":"Zêtang","lat":29.238,"lng":91.771},{"city":"Pānihāti","lat":22.69,"lng":88.37},{"city":"Lianzhou","lat":24.781,"lng":112.377},{"city":"Helixi","lat":30.6267,"lng":118.9861},{"city":"Scranton","lat":41.4044,"lng":-75.6649},{"city":"Rohtak","lat":28.8909,"lng":76.5796},{"city":"Māler Kotla","lat":30.5167,"lng":75.8833},{"city":"Oxnard","lat":34.1964,"lng":-119.1815},{"city":"Indio","lat":33.7346,"lng":-116.2346},{"city":"Panshi","lat":42.95,"lng":126.0667},{"city":"Jinshan","lat":25.1475,"lng":101.9764},{"city":"Kolga","lat":22.35,"lng":82.68},{"city":"Korba","lat":22.3458,"lng":82.6963},{"city":"Victorville","lat":34.5277,"lng":-117.3536},{"city":"Victoria","lat":48.4283,"lng":-123.3647},{"city":"Anguo","lat":38.418,"lng":115.327},{"city":"Coventry","lat":52.4081,"lng":-1.5106},{"city":"Trenton","lat":40.2237,"lng":-74.7641},{"city":"Caerdydd","lat":51.4817,"lng":-3.1792},{"city":"Nanqiao","lat":30.9167,"lng":121.4547},{"city":"Shuanghe","lat":30.3746,"lng":106.7903},{"city":"Dengtacun","lat":41.4333,"lng":123.3333},{"city":"Huntsville","lat":34.6981,"lng":-86.6412},{"city":"Sīkar","lat":27.62,"lng":75.15},{"city":"Sasarām","lat":24.95,"lng":84.03},{"city":"Xunyang","lat":32.8341,"lng":109.3653},{"city":"Anda","lat":46.424,"lng":125.352},{"city":"Karnāl","lat":29.686,"lng":76.989},{"city":"Linxia Chengguanzhen","lat":35.6047,"lng":103.2422},{"city":"Brahmapur","lat":19.315,"lng":84.7941},{"city":"Modesto","lat":37.6375,"lng":-121.0028},{"city":"Nice","lat":43.7034,"lng":7.2663},{"city":"Ahmadnagar","lat":19.08,"lng":74.73},{"city":"Yidu","lat":30.378,"lng":111.45},{"city":"Honolulu","lat":21.3294,"lng":-157.846},{"city":"Shāhjānpur","lat":27.88,"lng":79.91},{"city":"Āvadi","lat":13.1147,"lng":80.1098},{"city":"Greensboro","lat":36.0956,"lng":-79.8271},{"city":"Khānāpur","lat":15.6394,"lng":74.5083},{"city":"Fort Wayne","lat":41.0888,"lng":-85.1436},{"city":"Belfast","lat":54.5967,"lng":-5.93},{"city":"Cuddapah","lat":14.47,"lng":78.82},{"city":"Yong’an","lat":25.942,"lng":117.365},{"city":"Alamādi","lat":13.1097,"lng":80.0972},{"city":"Anaheim","lat":33.839,"lng":-117.8574},{"city":"Rājahmundry","lat":16.98,"lng":81.78},{"city":"Hongjiang","lat":27.191,"lng":109.819},{"city":"Alwar","lat":27.5498,"lng":76.6355},{"city":"Huadian","lat":42.972,"lng":126.746},{"city":"Corpus Christi","lat":27.7254,"lng":-97.3767},{"city":"Fort Collins","lat":40.5477,"lng":-105.0656},{"city":"Mishan","lat":45.5298,"lng":131.8466},{"city":"Islip","lat":40.7385,"lng":-73.1888},{"city":"Markham","lat":43.8767,"lng":-79.2633},{"city":"Reading","lat":51.4542,"lng":-0.9731},{"city":"Oshawa","lat":43.9,"lng":-78.85},{"city":"Sambalpur","lat":21.47,"lng":83.97},{"city":"Licheng","lat":24.5,"lng":110.4},{"city":"Huichang","lat":34.9073,"lng":112.7914},{"city":"Antioch","lat":37.9787,"lng":-121.796},{"city":"Muzaffarpur","lat":26.1225,"lng":85.3906},{"city":"Jackson","lat":32.3157,"lng":-90.2125},{"city":"Kāmārhāti","lat":22.6686,"lng":88.3704},{"city":"Lengshuijiang","lat":27.686,"lng":111.436},{"city":"Campīernagar","lat":27.029,"lng":83.2668},{"city":"Minzhu","lat":43.7238,"lng":127.3448},{"city":"Bijāpur","lat":16.83,"lng":75.71},{"city":"Ratnāgiri","lat":16.9944,"lng":73.3},{"city":"Ulanhot","lat":46.0722,"lng":122.0933},{"city":"Yunzhong","lat":39.8279,"lng":113.1},{"city":"Fayetteville","lat":35.085,"lng":-78.9772},{"city":"Myrtle Beach","lat":33.7094,"lng":-78.8844},{"city":"Jagdalpur","lat":19.18,"lng":81.92},{"city":"Rāmpur","lat":28.8,"lng":79},{"city":"Nantes","lat":47.2181,"lng":-1.5528},{"city":"Henderson","lat":36.0133,"lng":-115.0381},{"city":"Mobile","lat":30.6782,"lng":-88.1162},{"city":"Vaughan","lat":43.8333,"lng":-79.5},{"city":"Kaiyuan","lat":23.7111,"lng":103.2461},{"city":"Tangdong","lat":25.973,"lng":113.231},{"city":"Shimoga","lat":13.9333,"lng":75.5667},{"city":"Hotan","lat":37.1167,"lng":79.9167},{"city":"Ning’an","lat":44.341,"lng":129.483},{"city":"Kāshīpur","lat":29.22,"lng":78.95},{"city":"Lexington","lat":38.0423,"lng":-84.4587},{"city":"Jūnāgadh","lat":21.5222,"lng":70.4579},{"city":"Zalantun","lat":48.027,"lng":122.708},{"city":"Lansing","lat":42.7142,"lng":-84.5601},{"city":"Zhengjiatun","lat":43.5183,"lng":123.5027},{"city":"Hāpur","lat":28.7309,"lng":77.7757},{"city":"Savannah","lat":32.0286,"lng":-81.1821},{"city":"Pattikād","lat":10.5276,"lng":76.2144},{"city":"Xiaoli","lat":22.6721,"lng":113.2509},{"city":"Youngstown","lat":41.0993,"lng":-80.6463},{"city":"Trichūr","lat":10.5276,"lng":76.2144},{"city":"Yingzhong","lat":32.237,"lng":119.815},{"city":"Ann Arbor","lat":42.2759,"lng":-83.731},{"city":"Barddhamān","lat":23.2333,"lng":87.8667},{"city":"Kingston upon Hull","lat":53.7444,"lng":-0.3325},{"city":"Jiayuguan","lat":39.7732,"lng":98.2882},{"city":"Santa Ana","lat":33.7367,"lng":-117.8819},{"city":"Panvel","lat":18.9944,"lng":73.1139},{"city":"Nizāmābād","lat":18.672,"lng":78.094},{"city":"Datang","lat":22.9406,"lng":113.9436},{"city":"Longquan","lat":25.9106,"lng":114.786},{"city":"Beian","lat":48.25,"lng":126.5167},{"city":"Irvine","lat":33.6772,"lng":-117.7738},{"city":"St. Paul","lat":44.9478,"lng":-93.1039},{"city":"Poughkeepsie","lat":41.695,"lng":-73.9211},{"city":"Guangming","lat":45.3333,"lng":122.7833},{"city":"Newark","lat":40.7245,"lng":-74.1725},{"city":"Parbhani","lat":19.27,"lng":76.78},{"city":"Montpellier","lat":43.6119,"lng":3.8772},{"city":"Hisar","lat":29.15,"lng":75.7},{"city":"Windsor","lat":42.2833,"lng":-83},{"city":"Fatehpur","lat":27.98,"lng":74.95},{"city":"Birania","lat":27.98,"lng":74.95},{"city":"Yonghetun","lat":39.9131,"lng":116.6458},{"city":"Kāraikkudi","lat":10.0735,"lng":78.7732},{"city":"Lachhmangarh Sīkar","lat":27.8225,"lng":75.0253},{"city":"Qianzhou","lat":28.276,"lng":109.712},{"city":"Binxian","lat":35.0542,"lng":108.0814},{"city":"Yakou","lat":33.295,"lng":113.5269},{"city":"Newcastle","lat":54.978,"lng":-1.6102},{"city":"Oulgaret","lat":11.9265,"lng":79.7789},{"city":"Ingrāj Bāzār","lat":25.0119,"lng":88.1433},{"city":"Bada Barabīl","lat":22.12,"lng":85.4},{"city":"Santa Rosa","lat":38.4458,"lng":-122.7067},{"city":"Oyster Bay","lat":40.7846,"lng":-73.514},{"city":"Concord","lat":35.3933,"lng":-80.6369},{"city":"Bihār","lat":25.197,"lng":85.518},{"city":"Winter Haven","lat":28.0118,"lng":-81.7014},{"city":"Darbhanga","lat":26.17,"lng":85.9},{"city":"Idar","lat":23.839,"lng":73.002},{"city":"Asheville","lat":35.5707,"lng":-82.5537},{"city":"Sikandarābād","lat":28.4512,"lng":77.6955},{"city":"Stockport","lat":53.4083,"lng":-2.1494},{"city":"Canton","lat":40.8078,"lng":-81.3676},{"city":"Āīzawl","lat":23.7272,"lng":92.7178},{"city":"Bāli","lat":22.65,"lng":88.34},{"city":"Bradford","lat":53.8,"lng":-1.75},{"city":"Dexing","lat":28.9306,"lng":117.5947},{"city":"Lincoln","lat":40.8099,"lng":-96.6784},{"city":"Hailin","lat":44.594,"lng":129.38},{"city":"Strasbourg","lat":48.5833,"lng":7.7458},{"city":"Flint","lat":43.0236,"lng":-83.6921},{"city":"Gatineau","lat":45.4833,"lng":-75.65},{"city":"Surajgarha","lat":25.25,"lng":86.23},{"city":"Lakeland","lat":28.0557,"lng":-81.9545},{"city":"Hong’an","lat":47.21,"lng":123.61},{"city":"Nāgercoil","lat":8.175,"lng":77.4306},{"city":"Jersey City","lat":40.7184,"lng":-74.0686},{"city":"Dewās","lat":22.96,"lng":76.06},{"city":"Nottingham","lat":52.9561,"lng":-1.1512},{"city":"Anchorage","lat":61.1508,"lng":-149.1091},{"city":"Springfield","lat":37.1943,"lng":-93.2916},{"city":"Sonpur","lat":25.7,"lng":85.18},{"city":"Hugli","lat":22.9,"lng":88.39},{"city":"Chunchura","lat":22.9,"lng":88.39},{"city":"Ichalkaranji","lat":16.7,"lng":74.47},{"city":"Tirupati","lat":13.65,"lng":79.42},{"city":"Plano","lat":33.0502,"lng":-96.7486},{"city":"Bhatinda","lat":30.23,"lng":74.9519},{"city":"Bolton","lat":53.5783,"lng":-2.43},{"city":"Fuquan","lat":26.6863,"lng":107.5204},{"city":"Lubbock","lat":33.5657,"lng":-101.8879},{"city":"Satna","lat":24.6005,"lng":80.8322},{"city":"Davenport","lat":41.5565,"lng":-90.6053},{"city":"Jining","lat":41.03,"lng":113.08},{"city":"Reading","lat":40.34,"lng":-75.9267},{"city":"Mau","lat":25.9417,"lng":83.5611},{"city":"Bārāsat","lat":22.72,"lng":88.48},{"city":"Shreveport","lat":32.4653,"lng":-93.7955},{"city":"Chandler","lat":33.2825,"lng":-111.8514},{"city":"Sunderland","lat":54.906,"lng":-1.381},{"city":"Xingsha","lat":28.2573,"lng":113.1234},{"city":"Farrukhābād","lat":27.39,"lng":79.581},{"city":"South Bend","lat":41.6767,"lng":-86.2696},{"city":"Wilmington","lat":34.2099,"lng":-77.8866},{"city":"Chula Vista","lat":32.6281,"lng":-117.0144},{"city":"Saugor","lat":23.83,"lng":78.71},{"city":"Khorabar","lat":26.741,"lng":83.888},{"city":"Rockford","lat":42.2596,"lng":-89.064},{"city":"Ratlām","lat":23.334,"lng":75.037},{"city":"Shaowu","lat":27.3403,"lng":117.4925},{"city":"Huozhou","lat":36.569,"lng":111.7551},{"city":"Eugene","lat":44.0564,"lng":-123.1174},{"city":"Huilong","lat":30.3866,"lng":106.7756},{"city":"Salem","lat":44.9233,"lng":-123.0244},{"city":"Gilbert","lat":33.31,"lng":-111.7463},{"city":"Da’an","lat":45.5,"lng":124.2833},{"city":"North Las Vegas","lat":36.2883,"lng":-115.0888},{"city":"Bijiao","lat":22.9253,"lng":113.2067},{"city":"Handwāra","lat":34.3997,"lng":74.2817},{"city":"Drug","lat":21.19,"lng":81.28},{"city":"Plymouth","lat":50.3714,"lng":-4.1422},{"city":"Hulin","lat":45.7667,"lng":132.9333},{"city":"Anantapur","lat":14.68,"lng":77.599},{"city":"Saskatoon","lat":52.1333,"lng":-106.6833},{"city":"Santa Clarita","lat":34.4175,"lng":-118.4964},{"city":"Imphāl","lat":24.8074,"lng":93.9384},{"city":"Milton Keynes","lat":52.04,"lng":-0.76},{"city":"Peoria","lat":40.752,"lng":-89.6154},{"city":"Arrah","lat":25.5514,"lng":84.6603},{"city":"Tallahassee","lat":30.4551,"lng":-84.2527},{"city":"Killeen","lat":31.0753,"lng":-97.7297},{"city":"St. Petersburg","lat":27.7931,"lng":-82.6652},{"city":"Kennewick","lat":46.1978,"lng":-119.1732},{"city":"Sivakāsi","lat":9.4533,"lng":77.8024},{"city":"Columbus","lat":32.51,"lng":-84.8771},{"city":"Etāwah","lat":26.77,"lng":79.03},{"city":"Yakeshi","lat":49.286,"lng":120.712},{"city":"Laredo","lat":27.5625,"lng":-99.4874},{"city":"Malkājgiri","lat":17.4519,"lng":78.5362},{"city":"Derby","lat":52.9247,"lng":-1.478},{"city":"Westminster","lat":51.4947,"lng":-0.1353},{"city":"Irving","lat":32.8583,"lng":-96.9702},{"city":"Longueuil","lat":45.5333,"lng":-73.5167},{"city":"Tuni","lat":17.35,"lng":82.55},{"city":"Amarnāth","lat":19.209,"lng":73.186},{"city":"Rāpar","lat":23.57,"lng":70.63},{"city":"Samāstipur","lat":25.8629,"lng":85.7811},{"city":"Gokāk","lat":16.1667,"lng":74.8333},{"city":"Bharatpur","lat":27.22,"lng":77.48},{"city":"Round Lake Beach","lat":42.3791,"lng":-88.0811},{"city":"Begusarai","lat":25.42,"lng":86.13},{"city":"Montgomery","lat":32.3482,"lng":-86.2668},{"city":"Nedumana","lat":8.9139,"lng":76.6889},{"city":"Chesapeake","lat":36.6778,"lng":-76.3023},{"city":"Wolverhampton","lat":52.5833,"lng":-2.1333},{"city":"Glendale","lat":33.5791,"lng":-112.2311},{"city":"New Delhi","lat":28.6139,"lng":77.2089},{"city":"Tiruvottiyūr","lat":13.16,"lng":80.3},{"city":"Burnaby","lat":49.2667,"lng":-122.9667},{"city":"Rāmnagar","lat":27.17,"lng":84.32},{"city":"Gāndhīdhām","lat":23.08,"lng":70.13},{"city":"Salūmbar","lat":24.08,"lng":74.02},{"city":"Nashua","lat":42.7491,"lng":-71.491},{"city":"Shijing","lat":23.093,"lng":113.7965},{"city":"York","lat":39.9651,"lng":-76.7315},{"city":"Abertawe","lat":51.6167,"lng":-3.95},{"city":"Garland","lat":32.91,"lng":-96.6304},{"city":"Barnsley","lat":53.5547,"lng":-1.4791},{"city":"Stoke-on-Trent","lat":53.0255,"lng":-2.1761},{"city":"Rock Hill","lat":34.9415,"lng":-81.0241},{"city":"Puducherry","lat":11.9167,"lng":79.8167},{"city":"Kanpur","lat":26.4499,"lng":80.3319},{"city":"Wudalianchi","lat":48.75,"lng":126.1667},{"city":"Rāmgundam","lat":18.7639,"lng":79.475},{"city":"Pandharpur","lat":17.6778,"lng":75.3278},{"city":"St. Catharines","lat":43.1833,"lng":-79.2333},{"city":"Scottsdale","lat":33.6872,"lng":-111.8651},{"city":"Zhangping","lat":25.2902,"lng":117.42},{"city":"Masaurhi Buzurg","lat":25.35,"lng":85.02},{"city":"Alleppey","lat":9.49,"lng":76.33},{"city":"Katihār","lat":25.53,"lng":87.58},{"city":"Atushi","lat":39.7162,"lng":76.1684},{"city":"Ahor","lat":25.367,"lng":72.783},{"city":"Lille","lat":50.6278,"lng":3.0583},{"city":"Wuyishan","lat":27.7564,"lng":118.0353},{"city":"Shenmu","lat":38.8244,"lng":110.4831},{"city":"Gangānagar","lat":29.92,"lng":73.88},{"city":"Chishui","lat":28.5904,"lng":105.6975},{"city":"North Hempstead","lat":40.7912,"lng":-73.6688},{"city":"Tinkhang","lat":27.23,"lng":95.17},{"city":"Rewa","lat":24.5381,"lng":81.2953},{"city":"Bole","lat":44.8539,"lng":82.0514},{"city":"Arlington","lat":38.8786,"lng":-77.1011},{"city":"Uluberiya","lat":22.47,"lng":88.11},{"city":"Bulandshahr","lat":28.4069,"lng":77.8497},{"city":"Norfolk","lat":36.8945,"lng":-76.259},{"city":"Appleton","lat":44.278,"lng":-88.3892},{"city":"Longquan","lat":28.0667,"lng":119.1333},{"city":"Rāichūr","lat":16.2,"lng":77.37},{"city":"Chauhanpatti","lat":25.15,"lng":82.6},{"city":"Cannanore","lat":11.8745,"lng":75.3704},{"city":"Lin’an","lat":23.6025,"lng":102.8309},{"city":"Enterprise","lat":36.0091,"lng":-115.2278},{"city":"Machilīpatnam","lat":16.17,"lng":81.13},{"city":"Gulfport","lat":30.4274,"lng":-89.0704},{"city":"Lafayette","lat":30.2082,"lng":-92.0325},{"city":"Huangjingkeng","lat":22.9173,"lng":113.9958},{"city":"Pāli","lat":25.77,"lng":73.33},{"city":"Songadh","lat":21.167,"lng":73.564},{"city":"Gadda Madiral","lat":18.7519,"lng":79.5133},{"city":"Hosūr","lat":12.7409,"lng":77.8253},{"city":"Haridwār","lat":29.945,"lng":78.163},{"city":"Vizianagaram","lat":18.1159,"lng":83.406},{"city":"Bremerton","lat":47.5436,"lng":-122.7121},{"city":"Fremont","lat":37.5265,"lng":-121.9843},{"city":"Pāthardi","lat":19.17,"lng":75.18},{"city":"Mel Pālaiyam","lat":8.7,"lng":77.7069},{"city":"Rennes","lat":48.1147,"lng":-1.6794},{"city":"Green Bay","lat":44.5148,"lng":-87.9895},{"city":"Khatīma","lat":28.9198,"lng":79.9699},{"city":"Petlād","lat":22.47,"lng":72.8},{"city":"Regina","lat":50.4547,"lng":-104.6067},{"city":"Tieli","lat":46.95,"lng":128.05},{"city":"Dianbu","lat":31.8883,"lng":117.4608},{"city":"Pudukkottai","lat":10.3833,"lng":78.8001},{"city":"Hunchun","lat":42.863,"lng":130.366},{"city":"Nadiād","lat":22.69,"lng":72.86},{"city":"Fargo","lat":46.8651,"lng":-96.8292},{"city":"Nong’an","lat":44.4347,"lng":125.175},{"city":"Deltona","lat":28.905,"lng":-81.2137},{"city":"Brownsville","lat":25.9975,"lng":-97.458},{"city":"Tanjore","lat":10.787,"lng":79.1378},{"city":"Swindon","lat":51.56,"lng":-1.78},{"city":"Kichha","lat":28.92,"lng":79.5},{"city":"Hialeah","lat":25.8696,"lng":-80.3045},{"city":"Longjiang","lat":22.8853,"lng":113.0758},{"city":"Katri","lat":23.48,"lng":80.4},{"city":"San Bernardino","lat":34.1416,"lng":-117.2943},{"city":"Xiqiao","lat":22.9409,"lng":112.9819},{"city":"Dagarua","lat":25.8,"lng":87.64},{"city":"Sambhal","lat":28.58,"lng":78.55},{"city":"Tacoma","lat":47.2431,"lng":-122.4531},{"city":"Singrauliya","lat":24.202,"lng":82.666},{"city":"Gainesville","lat":29.6804,"lng":-82.3459},{"city":"Spring Valley","lat":36.0952,"lng":-115.2636},{"city":"Clarksville","lat":36.5692,"lng":-87.3413},{"city":"Naihāti","lat":22.89,"lng":88.42},{"city":"Babylon","lat":40.6925,"lng":-73.3586},{"city":"Jaynagar","lat":26.5925,"lng":86.1372},{"city":"Wayaobu","lat":37.1427,"lng":109.6752},{"city":"Yamunānagar","lat":30.133,"lng":77.288},{"city":"Dongxing","lat":21.5478,"lng":107.9717},{"city":"College Station","lat":30.5852,"lng":-96.2959},{"city":"Olympia","lat":47.0417,"lng":-122.8959},{"city":"Pallāvaram","lat":12.9675,"lng":80.1491},{"city":"Golmud","lat":36.4072,"lng":94.9283},{"city":"Khargone","lat":21.82,"lng":75.6187},{"city":"Roanoke","lat":37.2785,"lng":-79.9581},{"city":"Oakville","lat":43.45,"lng":-79.6833},{"city":"Secunderābād","lat":17.4399,"lng":78.4983},{"city":"Portland","lat":43.6773,"lng":-70.2715},{"city":"Norwich","lat":52.6286,"lng":1.2928},{"city":"Monghyr","lat":25.381,"lng":86.465},{"city":"Luton","lat":51.8783,"lng":-0.4147},{"city":"Chāpra","lat":25.7848,"lng":84.7274},{"city":"Jinshi","lat":29.5,"lng":111.908},{"city":"Bhadrāvati","lat":13.8485,"lng":75.705},{"city":"Fontana","lat":34.0968,"lng":-117.4599},{"city":"Xujing","lat":31.1731,"lng":121.2723},{"city":"Xigujing","lat":31.2988,"lng":121.1742},{"city":"Panchkula","lat":30.74,"lng":76.8},{"city":"Burhānpur","lat":21.3114,"lng":76.2289},{"city":"Gujiao","lat":37.907,"lng":112.176},{"city":"Spartanburg","lat":34.9442,"lng":-81.9251},{"city":"Moreno Valley","lat":33.9244,"lng":-117.2045},{"city":"Frisco","lat":33.156,"lng":-96.8216},{"city":"Richmond","lat":49.1667,"lng":-123.1333},{"city":"Kāpra","lat":17.4859,"lng":78.5651},{"city":"Yonkers","lat":40.9466,"lng":-73.8673},{"city":"Nowgong","lat":26.3504,"lng":92.6796},{"city":"Taisheng","lat":23.2939,"lng":113.3531},{"city":"Thousand Oaks","lat":34.1914,"lng":-118.8756},{"city":"Ambāla","lat":30.38,"lng":76.78},{"city":"Sioux Falls","lat":43.5396,"lng":-96.7311},{"city":"Kharagpur","lat":22.3302,"lng":87.3237},{"city":"Robertsonpet","lat":12.9563,"lng":78.2754},{"city":"Dindigul","lat":10.35,"lng":77.95},{"city":"Hagerstown","lat":39.6401,"lng":-77.7217},{"city":"Rānīwāra Kalān","lat":24.75,"lng":72.2167},{"city":"Solihull","lat":52.413,"lng":-1.778},{"city":"Shimla","lat":31.1033,"lng":77.1722},{"city":"Evansville","lat":37.9881,"lng":-87.5341},{"city":"Hospet","lat":15.2689,"lng":76.3909},{"city":"Islington","lat":51.544,"lng":-0.1027},{"city":"Diaobingshancun","lat":42.4667,"lng":123.5667},{"city":"Māldah","lat":25.0044,"lng":88.1458},{"city":"Jiutai","lat":44.1447,"lng":125.8443},{"city":"Huayin","lat":34.5833,"lng":110.1},{"city":"Amarillo","lat":35.1984,"lng":-101.8316},{"city":"Ongole","lat":15.506,"lng":80.049},{"city":"Kalamazoo","lat":42.2749,"lng":-85.5882},{"city":"Luzhang","lat":25.8226,"lng":98.8577},{"city":"Lorain","lat":41.4409,"lng":-82.184},{"city":"Ellore","lat":16.7117,"lng":81.1031},{"city":"Huntington","lat":40.8521,"lng":-73.3823},{"city":"Deoghar","lat":24.48,"lng":86.7},{"city":"Galveston","lat":29.2484,"lng":-94.8913},{"city":"Chhindwāra","lat":22.057,"lng":78.9396},{"city":"Mokameh","lat":25.3898,"lng":85.9191},{"city":"McKinney","lat":33.2016,"lng":-96.667},{"city":"Richmond Hill","lat":43.8667,"lng":-79.4333},{"city":"Huntington","lat":38.4109,"lng":-82.4345},{"city":"Nampa","lat":43.5844,"lng":-116.5638},{"city":"Puri","lat":19.8106,"lng":85.8314},{"city":"Haldia","lat":22.0667,"lng":88.0698},{"city":"Khandwa","lat":21.82,"lng":76.35},{"city":"Aberdeen","lat":57.15,"lng":-2.11},{"city":"Nandyāl","lat":15.48,"lng":78.48},{"city":"Hickory","lat":35.741,"lng":-81.3223},{"city":"Morena","lat":26.5,"lng":78},{"city":"Karjat","lat":18.55,"lng":75},{"city":"Kasba Patāspur","lat":22.0216,"lng":87.5423},{"city":"Waterbury","lat":41.5582,"lng":-73.0361},{"city":"Drabar","lat":33.43,"lng":75.09},{"city":"Sunrise Manor","lat":36.1783,"lng":-115.0487},{"city":"Grand Prairie","lat":32.6871,"lng":-97.0208},{"city":"Amroha","lat":28.9044,"lng":78.4675},{"city":"Rānī","lat":9.3667,"lng":76.7667},{"city":"Chakradharpur","lat":22.7,"lng":85.63},{"city":"Ocala","lat":29.178,"lng":-82.1511},{"city":"Bhiwāni","lat":28.78,"lng":76.13},{"city":"Waco","lat":31.5599,"lng":-97.1882},{"city":"Bhind","lat":26.5647,"lng":78.7864},{"city":"Overland Park","lat":38.887,"lng":-94.687},{"city":"Bamiantong","lat":44.9167,"lng":130.5167},{"city":"Frederick","lat":39.4337,"lng":-77.4141},{"city":"Khammam","lat":17.2473,"lng":80.1514},{"city":"Madhyamgram","lat":22.7,"lng":88.45},{"city":"Huntington Beach","lat":33.696,"lng":-118.0018},{"city":"Ghāndīnagar","lat":23.2231,"lng":72.65},{"city":"Dongning","lat":44.1167,"lng":130.8167},{"city":"Beichengqu","lat":40.437,"lng":113.11},{"city":"Baharampur","lat":24.1,"lng":88.25},{"city":"Santa Barbara","lat":34.4285,"lng":-119.7202},{"city":"Morbi","lat":22.82,"lng":70.83},{"city":"Peoria","lat":33.7843,"lng":-112.2989},{"city":"Peterborough","lat":52.5661,"lng":-0.2364},{"city":"Fatehpur","lat":25.93,"lng":80.8},{"city":"Cedar Rapids","lat":41.9662,"lng":-91.6783},{"city":"Vancouver","lat":45.6366,"lng":-122.5967},{"city":"Glendale","lat":34.1819,"lng":-118.2468},{"city":"Croydon","lat":51.3727,"lng":-0.1099},{"city":"Rāe Bareli","lat":26.2236,"lng":81.2403},{"city":"Orai","lat":25.98,"lng":79.47},{"city":"Mahbūbnagar","lat":16.7488,"lng":78.0035},{"city":"Taihe","lat":23.7413,"lng":113.0076},{"city":"Gastonia","lat":35.2494,"lng":-81.1854},{"city":"Murtazābād","lat":28.7111,"lng":77.2688},{"city":"Spring Hill","lat":28.4798,"lng":-82.53},{"city":"Bhuj","lat":23.25,"lng":69.67},{"city":"Murfreesboro","lat":35.849,"lng":-86.4121},{"city":"Ratanpur","lat":23.0851,"lng":72.5716},{"city":"Bournemouth","lat":50.72,"lng":-1.88},{"city":"Bhusāval","lat":21.05,"lng":75.77},{"city":"Burlington","lat":43.3167,"lng":-79.8},{"city":"Tempe","lat":33.3881,"lng":-111.9319},{"city":"Bahraigh","lat":27.575,"lng":81.594},{"city":"Paradise","lat":36.0872,"lng":-115.1355},{"city":"Basildon","lat":51.58,"lng":0.49},{"city":"St. John's","lat":47.4817,"lng":-52.7971},{"city":"Umreth","lat":22.6986,"lng":73.1156},{"city":"Dunhuang","lat":40.1411,"lng":94.6639},{"city":"Ittikara","lat":8.8633,"lng":76.6972},{"city":"Mahesāna","lat":23.6,"lng":72.4},{"city":"Newport News","lat":37.1051,"lng":-76.5185},{"city":"Alasandigutta","lat":15.6244,"lng":77.2731},{"city":"Erie","lat":42.1167,"lng":-80.0733},{"city":"Rāiganj","lat":25.62,"lng":88.12},{"city":"Batāla","lat":31.8186,"lng":75.2028},{"city":"Saint Helens","lat":53.4542,"lng":-2.7361},{"city":"Fort Lauderdale","lat":26.1412,"lng":-80.1464},{"city":"Pālanpur","lat":24.1722,"lng":72.4333},{"city":"Sirsa","lat":29.5333,"lng":75.0167},{"city":"Donghua","lat":35.2167,"lng":106.6},{"city":"Dinapore","lat":25.6225,"lng":85.0417},{"city":"Gainesville","lat":34.2902,"lng":-83.8294},{"city":"Tambaram","lat":12.831,"lng":80.0459},{"city":"Shrīrāmpur","lat":22.75,"lng":88.34},{"city":"Kelowna","lat":49.8881,"lng":-119.4956},{"city":"Himatnagar","lat":23.6,"lng":72.95},{"city":"Guna","lat":24.65,"lng":77.32},{"city":"Toulon","lat":43.1258,"lng":5.9306},{"city":"Nawāda","lat":24.88,"lng":85.53},{"city":"Jaunpur","lat":25.73,"lng":82.68},{"city":"Mahād","lat":18.083,"lng":73.417},{"city":"Madanapalle","lat":13.55,"lng":78.5},{"city":"Longjin","lat":22.9525,"lng":113.0065},{"city":"Wadlakonda","lat":17.7736,"lng":79.575},{"city":"Bhachāu","lat":23.296,"lng":70.343},{"city":"Shivpuri","lat":25.43,"lng":77.65},{"city":"Aurora","lat":41.7638,"lng":-88.2902},{"city":"Mauldin","lat":34.7821,"lng":-82.3032},{"city":"Sātāra","lat":17.688,"lng":74.006},{"city":"Reims","lat":49.2628,"lng":4.0347},{"city":"Vāda","lat":19.39,"lng":73.08},{"city":"Ontario","lat":34.0393,"lng":-117.6064},{"city":"Phillaur","lat":31.03,"lng":75.78},{"city":"Unnāo","lat":26.55,"lng":80.49},{"city":"Sītāpur","lat":27.57,"lng":80.66},{"city":"Elk Grove","lat":38.4161,"lng":-121.3842},{"city":"Kalamboli","lat":19.2333,"lng":73.1333},{"city":"Panama City","lat":30.1995,"lng":-85.6003},{"city":"Cary","lat":35.7819,"lng":-78.8195},{"city":"Sāila","lat":25.333,"lng":72.367},{"city":"Wārāseonī","lat":21.7647,"lng":80.0494},{"city":"Mauli","lat":30.699,"lng":76.693},{"city":"Harnaut","lat":25.3694,"lng":85.5319},{"city":"Tongjiang","lat":47.65,"lng":132.5},{"city":"Hemet","lat":33.7341,"lng":-116.9969},{"city":"Chittoor","lat":13.216,"lng":79.098},{"city":"Navadwīp","lat":23.42,"lng":88.37},{"city":"Kotdwāra","lat":29.75,"lng":78.53},{"city":"Danbury","lat":41.4015,"lng":-73.4709},{"city":"Pīlibhīt","lat":28.6267,"lng":79.8058},{"city":"Rancho Cucamonga","lat":34.1247,"lng":-117.5667},{"city":"Kangqiao","lat":31.35,"lng":105.0667},{"city":"Cuddalore","lat":11.75,"lng":79.75},{"city":"Gondal","lat":21.958,"lng":70.795},{"city":"Deo","lat":24.6583,"lng":84.4378},{"city":"Fenglu","lat":24.6506,"lng":102.935},{"city":"Salinas","lat":36.6883,"lng":-121.6317},{"city":"Sherbrooke","lat":45.4,"lng":-71.9},{"city":"Silchar","lat":24.82,"lng":92.8},{"city":"Chīrāla","lat":15.8246,"lng":80.3521},{"city":"Gadag","lat":15.4167,"lng":75.6167},{"city":"Saint-Étienne","lat":45.4347,"lng":4.3903},{"city":"Oceanside","lat":33.2247,"lng":-117.3083},{"city":"Tiruvannāmalai","lat":12.13,"lng":79.07},{"city":"Bīdar","lat":17.912,"lng":77.52},{"city":"Jalālābād","lat":30.62,"lng":74.25},{"city":"Vallejo","lat":38.1125,"lng":-122.2342},{"city":"High Point","lat":35.991,"lng":-79.9937},{"city":"Villupuram","lat":11.9401,"lng":79.4861},{"city":"Nawsari","lat":20.95,"lng":72.93},{"city":"Garden Grove","lat":33.7787,"lng":-117.9601},{"city":"Pembroke Pines","lat":26.0128,"lng":-80.3382},{"city":"Valsād","lat":20.61,"lng":72.926},{"city":"Lancaster","lat":34.6935,"lng":-118.1753},{"city":"Medinīpur","lat":22.424,"lng":87.319},{"city":"Ji’an Shi","lat":41.1253,"lng":126.194},{"city":"Damoh","lat":23.8331,"lng":79.4419},{"city":"Marysville","lat":48.0809,"lng":-122.1561},{"city":"Harīpur","lat":31.53,"lng":75.92},{"city":"Neyveli","lat":11.6088,"lng":79.4994},{"city":"Haicheng","lat":22.9658,"lng":115.3187},{"city":"Ilford","lat":51.5575,"lng":0.0858},{"city":"Bāramūla","lat":34.198,"lng":74.364},{"city":"Malkāpur","lat":20.885,"lng":76.2},{"city":"Basuo","lat":19.092,"lng":108.671},{"city":"Jīnd","lat":29.3167,"lng":76.3167},{"city":"Chandannagar","lat":22.87,"lng":88.38},{"city":"Tiantoujiao","lat":23.0241,"lng":114.1046},{"city":"Fredericksburg","lat":38.2992,"lng":-77.4872},